objectid,city_name,city_altnm,lat,lng
18869,Teyateyaneng,"",-29.148819112,27.747605605
18870,Kingstown,"",13.155268369,-61.227416038
18871,Bridgetown,"",13.098804548,-59.616175578
18872,Yamoussoukro,"Giamoussoukro, Jamusukras, Jamusukro",6.82055167999999,-5.276736169
18873,Mbabane,"Embabane, Gorad Mbabaneh, Mabane, Mbaban, Mbabano",-26.316668343,31.133328485
18874,Malabo,"Ciudad De Malabo, Malaba, Malabas, Malabo",3.75000366,8.78332610500001
18875,Sarajevo,"Bosna-Sarai, Gorad Saraeva",43.850780636,18.386654733
18876,Ashgabat,"Achgabat, Achkhabad",37.949997517,58.383327854
18877,Asmara,"Asmehra, Asmera, Aszmara",15.338966669,38.932676292
18878,Gaborone,"",-24.654501774,25.908585718
18879,Praia,"",14.931517083,-23.512535213
18880,Yaounde,Jaunde,3.868988043,11.521325706
18881,Cairo,"Al-Qāhira, القاهرة‎",30.048813152,31.243662286
18882,Libreville,"",0.392413868000006,9.45355675500002
18883,Accra,Accrà,5.55602377700001,-0.196895744000017
18884,Port Louis,Porlwi,-20.162008728,57.49888745
18885,Rabat,"Al-Ribāṭ, Aṛbaṭ, الرباط‎",34.013243928,-6.83254447899998
18886,Saint-Denis,"",-20.882306295,55.450395737
18887,Victoria,"Port Victoria, Mahé",-4.623205622,55.452357639
18888,Belmopan,"",17.249996655,-88.766669049
18889,Hamilton,"",32.294897662,-64.78302424
18890,Ottawa,Gatineau,45.411164949,-75.698117698
18891,George Town,"",19.286597112,-81.374356546
18892,San Jose,San José,9.93333277400001,-84.083325578
18893,San Salvador,"",13.697751665,-89.193005383
18894,Nuuk,Godthab,64.183466158,-51.721565918
18895,Fort-De-France,Fodfrans,14.608917412,-61.073334418
18896,San Juan,Saint John,18.466326893,-66.105714407
18897,La Paz,"Nuestra Señora De La Paz, Chuqiyapu",-16.495636098,-68.133628345
18898,Brasilia,"",-15.7930371625,-47.891970016
18899,Santiago,Santiago De Chile,-33.456937793,-70.648267018
18900,Quito,San Francisco De Quito,-0.213036991000024,-78.501990396
18901,Asuncion,Asunción,-25.295985932,-57.631115716
18902,Lima,Ciudad De Los Reyes,-12.062102194,-77.036520834
18903,Paramaribo,Parbo,5.82162176999998,-55.177193907
18904,Yerevan,"Erevan, Երևան",40.177605698,44.512580617
18905,Manama,"Al-Manāmah, منامة",26.227867523,50.585647377
18906,Thimphu,"Thimbu, Thimpu",27.472760742,89.629542189
18907,Bandar Seri Begawan,"Brunei Town, بندر سري بڬاوان",4.88954534700002,114.941753993
18908,Beijing,"Peking, 北京",39.907493555,116.397223183
18909,Pyongyang,"P'Yŏngyang, 平壤",39.033848068,125.754318112
18910,Tbilisi,"Tiflis, Tiblisi, Tbilissi, თბილისი",41.694106898,44.833675572
18911,New Delhi,"Naī Dillī, नई दिल्ली",28.635755661,77.22444652
18912,Astana,"Akmola, Астана, Nur-Sultan",51.155292987,71.4330864755
18913,Kuala Lumpur,"கோலாலம்பூர், 吉隆坡",3.14120240300002,101.686529025
18914,Malé,"",4.174805021,73.508875431
18915,Ulaanbaatar,"Ulan Bator, Ulaγanbaγatur, Улаанбаатар",47.918306671,106.914921639
18916,Islamabad,"Islāmābād, اسلام آباد‬‎",33.694572498,73.064371532
18917,Seoul,"Seul, 서울특별시",37.565994929,126.978398306
18918,East Jerusalem,"Eastern Jerusalem, القدس الشرقية , מזרח ירושלים‎",31.777980947,35.235413208
18919,Ankara,"Ancyra, Angora",39.919864189,32.854268188
18920,Tashkent,"Toshkent, Taškent, Ташке́Нт",41.312335028,69.278704624
18921,Minsk,"Мінск, Менск, Минск",53.899994085,27.566663427
18922,Sofia,"Sofiya, Со́Фия",42.69750422,23.32414418
18923,Zagreb,Zah-Greb,45.814433402,15.977971877
18924,Tallinn,"Reval, Tallinna",59.436955666,24.753522741
18925,Helsinki,Helsingfors,60.169517338,24.935446957
18926,Berlin,"",52.524363642,13.41052609
18927,Athinai,"Athína, Athens, Αθήνα",37.979445741,23.716213815
18928,Budapest,"",47.498002518,19.03990567
18929,Reykjavik,Reykjavík,64.135475024,-21.895404433
18930,Roma,Rome,41.891926069,12.511322617
18931,Vilnius,"Vil'Njus, Vil'Na, Wilno, Wilna, Вильнюс",54.689157954,25.279796218
18932,Valletta,La Valletta,35.899714517,14.514712783
18933,Podgorica,Подгорица,42.441107634,19.263606853
18934,Amsterdam,Amstelredamme,52.374025156,4.88968510900003
18935,Warszawa,Warsaw,52.229763238,21.011776687
18936,Moskva,"Moscow, Москва",55.75221573,37.615555084
18937,Bratislava,"Pressburg, Prešporok, Prešporek, Pozsony",48.148155441,17.106735606
18938,Ljubljana,"Laibach, Lubiana",46.05107781,14.505125209
18939,Madrid,"",40.416496083,-3.70255666600002
18940,Stockholm,"",59.332575393,18.064898221
18941,Berne,"Bern, Bärn, Berna",46.948084131,7.447436794
18942,Skopje,"Shkup, Скопје",41.996452819,21.431406158
18943,Canberra,"",-35.283459412,149.128064493
18944,Suva,"",-18.138267161,178.449582245
18945,Papeete,"",-17.537326012,-149.566495904
18946,Tarawa,"",1.329301687,172.9775209985
18947,Majuro,"",7.08971602999998,171.380264457
18948,Noumea,"Nouméa, Port-De-France",-22.2752276295,166.443968709
18949,Wellington,Te Whanga-Nui-A-Tara,-41.286634533,174.775566188
18950,Koror,"",7.34327629199998,134.476675695
18951,Honiara,"",-9.43332700399998,159.949994251
18952,Nuku'Alofa,"",-21.139377562,-175.201795635
18953,Port Vila,"",-17.741496951,168.315010523
18954,Madinat Al-Kuwait,Kuwait City,29.369715521,47.978328823
18955,Chişinău,Kishinev,47.024469575,28.832249827
18956,Beograd,Belgrade,44.804005193,20.465125177
18957,Cuidad De Guatemala,"Cidade Da Guatemala, Guatemala City",14.623105402,-90.518284375
18958,Ciudad De Mexico,"Mexico City, Cidade De Mexico",19.428465829,-99.12765815
18959,El Aaiún,"Laayoune, Laâyoune, El Aaiún, العيون",27.141796466,-13.187966938
18960,Lisboa,Lisbon,38.716668151,-9.13332723799999
18961,Bloemfontein,"Blumfonteina, Blumfonteinas",-29.121069531,26.213999582
18962,Pretoria,"",-25.744855853,28.187825916
18963,Nicosia,"An Leafcois, An Leafcóis, Arqa Nikosiya, Lefkosia",35.175309698,33.364198191
18964,Bucuresti,"Buh, Boekarest, Boukouresti, Bucarest, Bucaresta",44.432246059,26.106256555
18965,Luxembourg-Ville,Bandar Luxembourg,49.61166932,6.12999825399999
18966,Wien,Vienna,48.20848998,16.372079289
18967,Praha,"Praag, Prag, Pragae, Prago, Prague",50.088037229,14.420757356
18968,Kobenhavn,"Cobanhavan, Copenaghen, Copenhagen, Copenhague, Koben",55.675937197,12.565528001
18969,Kiev,"Chijv, Civ, Cív, Gorad Kieu",50.454659619,30.523797161
18970,Meta-Utu,"Mata Utu, Matā'Utu",-13.28163,-176.17453
18971,Grand Turk,Cockburn Town,21.46122,-71.14188
18972,St. Helier,Saint Helier,49.18804,-2.10491000000002
18973,Agana,Hagåtña,13.47567,144.74886
18974,St. Peter Port,"Saint Peter Port, Saint-Pierre-Port",49.45981,-2.53527000000003
18975,Thorshavn,"Tórshavn, Thorshavn, Torshamn, Þórshöfn",62.00973,-6.77163999999999
18976,Jamestown,"",-15.938719404,-5.71674873699999
18977,The Valley,"",18.217039647,-63.057828002
18978,Oranjestad,"",12.5256452635,-70.036308304
18979,Basse-Terre,"",15.998535887,-61.725478351
18980,Castries,Kastri,14.010576591,-60.990406419
18981,Saint-Pierre,"",46.779138756,-56.177299708
18982,Washington,"",38.713446165,-78.159437703
18983,Charlotte Amalie,"",18.341896099,-64.93069728
18984,Stanley,"",-51.699999407,-57.849996365
18985,Cayenne,Kayenn,4.93333196499998,-52.333326584
18986,Jerusalem,"יְרוּשָׁלַיִם, القُدس",31.769036152,35.21632706
18987,Tirana,"Tiranë, Gorad Tyrana, Terana, Theranda, Tiorána, Tiran",41.327498189,19.818888657
18988,Andorra La Vella,"Andorra La Vieja, Andorre-La-Vieille, Andòrra La Vièlha",42.507789007,1.52108698699999
18989,Gibraltar,"",36.144735942,-5.35256983599999
18990,Douglas,Doolish,54.149998396,-4.48332665200002
18991,Vaduz,Vadoz,47.141508665,9.52153886399998
18992,San Marino,"San Marèin, San Maroin",43.936667734,12.446386524
18993,Pago Pago,"",-14.27500344,-170.704825644
18994,Avarua,"",-21.2080198705,-159.771505284
18995,Alofi,"",-19.054505725,-169.917679871
18996,Kingston,"",-29.054586823,167.966279768
18997,Adamstown,"",-25.065966334,-130.10146767
18998,Apia,"Āpia, Apiae, Apija, Apio, Apiya",-13.833327147,-171.766658754
18999,Funafuti,Funafutti,-8.52817752200002,179.191837209
19000,Citta` Del Vaticano,Vatican City,41.902135861,12.45338457
19001,Garapan,"",15.211320812,145.721805257
19002,Palikir,"",6.92477861100002,158.163293058
19003,Hanoi,"Anoi, Anòy, Han",21.024496322,105.841168007
19004,Naypyidaw,"",19.803255684,96.185659396
19005,Lobamba,"",-26.442858885,31.206574832
19006,Saint George'S,"",12.0537529705,-61.747484828
19007,Road Town,"",18.427235627,-64.622897996
19008,Brades,"",16.788833624,-62.208642079
19009,Plymouth,"",16.714239861,-62.2212635
19010,Basseterre,"",17.299815309,-62.722497515
19011,Charlestown,"",17.139282379,-62.623320102
19012,Monaco,Monte Carlo,43.733092169,7.41884691000001
19013,Yaren,"",-0.546921041000019,166.91636932
19014,San Antonio,"",-33.580460465,-71.60992709
19015,Rosario,"Rosario,Villa Del Rosario",-34.316665722,-57.34999906
19016,San Antonio,"",-25.412622312,-57.574003577
19017,Mwanza,"Gorad Mvanza, Mwz, Muansa",-2.51666882900003,32.899998229
19018,Depok,"",-6.40742374799999,106.814018736
19019,Tasikmalaya,"",-7.32624771399998,108.220114063
19020,Bekasi,"",-6.234984505,106.994539943
19021,Aba,Aba,5.11273717699999,7.36434733499999
19022,Benin City,"",6.33305982000002,5.62210348299999
19023,Ibadan,"",7.37715344349999,3.89765913299999
19024,Kaduna,"",10.518293446,7.43598251999998
19025,Kisangani,"",0.518405846999997,25.205725008
19026,Mosul,"Al Mawsil, Al Mawşil, Al Mosul",36.334999607,43.118886367
19027,Kirkuk,"Kik, Karkh Slukh, Karkuk",35.468055913,44.392218777
19028,Srinagar,"Gorad Srynagar, Sxr, Shrinagar",34.085648482,74.805546758
19030,Mandalay,"Gorad Mandalaj, Mdl, Mandalaj",21.974725651,96.083586344
19031,Haikou,"Chaj-Kchou, Gorad Khajkou, Hak",20.045827119,110.341665749
19032,Zhanjiang,"Chan-Chiang, Chan-Chiang-Shih, Chankiang",21.281449694,110.342709744
19033,Kunming,"Con Minh, Côn Minh, K'Un-Ming-Hsien",25.038888198,102.718325717
19034,Nanning,"Lam-Leng-Chhi, Lâm-Lêng-Chhī, Nng",22.816667454,108.316665639
19035,Zhaoqing,"Cao-Cching, Chao-Ch'Ing, Chao-Ch'Ing-Chen",23.051156925,112.45971645
19036,Chengdu,"Ctu, Ccheng-Tu, Cendu",30.666666992,104.066668297
19037,Xiangyang,"Fancheng, Fancheng Zhen, Hsiang-Fan",32.042198453,112.144789833
19038,Guangzhou,"Can, Cantao, Canton",23.116667637,113.249998481
19039,Shantou,"San Gjau, San-Tchou, San-Theu-Su",23.368135533,116.71478977
19040,Chaozhou,"Caodzou, Caogou, Cchao-Cou",23.653956278,116.622616675
19041,Chenzhou,"Ch'En, Ch'En-Chou-Shih, Ch'En-Hsien",25.799996857,113.033328932
19042,Ganzhou,"Cam Chau, Cám Châu, Gan'Chzhou",25.846639152,114.932599594
19043,Quanzhou,"Cchuean-Cou, Ch'Uan-Chou, Ch'Uan-Chou-Shih",24.913887747,118.585827556
19044,Taoyuan,"Hsin-Chu, Hsin-Chu-Hsien, T'Ao-Yuan",24.989599915,121.318697058
19045,Wenzhou,"On Chau, Un-Chiu-Chhi, Un-Chiu-Chhī",27.999416201,120.66681642
19046,Wuhan,"Bu-Han-Chhi, Bú-Hàn-Chhī, Gorad Ukhan'",30.583327357,114.266665518
19047,Shangrao,"Kuanghsin, Kwangsin, Sqd",28.451785715,117.942865879
19048,Suzhou,"Su-Hsien, Suchow, Suchzhou",33.636109455,116.978889111
19049,Hangzhou,"Chan'Nktsoou, Chang-Cou, Chang-Čou",30.293645629,120.161419139
19050,Jiaxing,"Chia-Hsing, Chia-Hsing-Hsien, Chia-Hsing-Hsien-Ch'Eng",30.752198116,120.749998555
19051,Nanjing,"Gorad Nankin, Lâm-Kiaⁿ-Chhī, Nkg",32.061669867,118.777778713
19052,Nantong,"Lam-Thong-Chhi, Lâm-Thong-Chhī, Ntg",32.030278005,120.874715507
19053,Tianjin,T'Ien-Chin,39.142217783,117.176667742
19054,Qingdao,"Cching-Tao, Ch'Ing-Tao, Ch'Ing-Tao-Shih",36.066049288,120.369385726
19055,Weihai,"Uy Hai, Uy Hải, 威海",37.509138952,122.113555569
19056,Qinhuangdao,"Bpe, Cchin-Chuang-Tao, Ch'In-Huang-Tao",39.931667317,119.588328655
19057,Yingkou,"Eiko, Inkou, Newchwang",40.664817598,122.228327565
19058,Shenyang,"Feng-T'Ien, Feng-T’Ien, Moukden",41.792215649,123.432778777
19059,Changwon,"Cangvonas, Cchangwon, Ch'Angwon",35.228058466,128.681105736
19060,La Paz,"",-34.755628354,-56.22720572
19061,Santa Cruz,"",36.974200946,-122.029718212
19062,Monrovia,"",34.148349831,-118.001451738
19063,Alexandria,"",31.311247939,-92.444908766
19064,Manchester,"",38.596997666,-90.509288271
19065,Guadalajara,"",40.632697834,-3.164606779
19066,Birmingham,Birmingham,52.477539544,-1.89405300200002
19067,Onitsha,"Yenagoa, Yenegoa",6.13323397699997,6.792317943
19068,Tripoli,"Tripoli, Τρίπολη",37.510209656,22.37243997
19069,Alexandria,Alexandria,43.970223569,25.328846184
19070,Maoming,茂名市,21.665656186,110.919631453
19071,Zhuhai,珠海市,22.230519598,113.546243891
19072,Liupanshui,六盘水市,26.592770547,104.839316245
19073,Guiyang,贵阳市,26.58141114,106.705254375
19074,Liuzhou,"Liuzhou, 柳州市",24.321304375,109.406618553
19075,Guilin,桂林市,25.281535789,110.291233047
19076,Zhongshan,钟山县,24.533332998,111.299999956
19077,Zunyi,遵义市,27.729381428,106.923218474
19078,Quanzhou,全州,25.932490734,111.067230481
19079,Leshan,"Leshan, 乐山市",29.560875467,103.761992158
19080,Chongqing,"Chongqing, 重庆市",29.558571198,106.54928216
19081,Nanchong,"Nanchong, 南充市",30.795569535,106.083553864
19082,Bazhong,"Bazhong, 巴中市",31.859018219,106.754750938
19083,Yichang,宜昌市,30.703119573,111.275018029
19084,Wuxi,巫溪县,31.396984498,109.566237818
19085,Shiyan,十堰市,32.642067432,110.7782466
19086,Yiwu,"Ara Türük, 伊吾县",43.25291203,94.696093583
19087,Lanzhou,兰州市,36.059311186,103.82391548
19088,Xining,西宁市,36.621903688,101.772989753
19089,Yinchuan,银川市,38.482919378,106.211601349
19090,Baoji,宝鸡市,34.364581056,107.233218386
19091,Binzhou,"Bin, 彬州市",35.03628775,108.079760347
19092,Luoyang,洛阳市,34.655687236,112.420962829
19093,Baotou,包头市,40.660200953,109.830324262
19094,Hohhot,呼和浩特市,40.833796287,111.673078717
19095,Dongguan,东莞市,23.044471127,113.746551177
19096,Shenzhen,深圳市,22.544569644,114.05453457
19097,Huizhou,惠州市,23.106086162,114.414110421
19098,Puning,普宁市,23.300181955,116.168009997
19099,Jieyang,揭阳市,23.54308163,116.349716834
19100,Guiyang,桂阳县,25.756164661,112.729639992
19101,Putian,莆田市,25.434219867,119.007462427
19102,Yueyang,岳阳市,29.369136498,113.095512999
19103,Nanchang,南昌县,28.56151297,115.928599289
19104,Luohe,Luohe,33.572055347,114.02851622
19105,Hefei,合肥市,31.82280932,117.221803232
19106,Fuyang,"Fuyang, 阜阳市",32.892676279,115.809000092
19107,Huainan,"Huainan, 淮南市",32.586682582,117.013001894
19108,Jinhua,金华市,29.108034347,119.648648683
19109,Yiwu,义乌市,29.306353445,120.070268135
19110,Huizhou,徽州区,29.831086065,118.335844079
19111,Fuyang,"Fuyang, 富阳区",30.051617877,119.955706546
19112,Shaoxing,"Shaoxing, 绍兴市",29.999242465,120.576853935
19113,Huzhou,湖州市,30.864539187,120.095067756
19114,Wenling,温岭市,28.375414352,121.381201228
19115,Cixi,"Cixi, 慈溪市",30.170867465,121.26178593
19116,Ma'Anshan,马鞍山市,31.686610434,118.504837663
19117,Suzhou,"Sūzhōu, 苏州市",31.301693491,120.581072463
19118,Wuxi,"Wúxī, 无锡市",31.576054137,120.29553874
19119,Changzhou,常州市,31.8129864,119.969204428
19120,Yangzhou,扬州市,32.392697263,119.436575887
19121,Lanús,"Lanus, Lanús",-34.703541783,-58.400512011
19122,Shidao,石岛管理区,36.879687619,122.423930564
19123,Huai'An County,怀安县,40.673488868,114.379905718
19124,Xuanhua,宣化区,40.608002819,115.092783481
19125,Baochang,"",41.891951116,115.276004876
19126,Huangcun,"",39.725412974,116.335441698
19127,Fengtai,丰台区,39.857200632,116.280164556
19128,Mentougou,门头沟区,39.938998283,116.094756774
19129,Shijingshan,石景山区,39.904610185,116.216796949
19130,Tongzhou,通州区,39.908824522,116.651168964
19131,Yutian,玉田县,39.877527115,117.747738118
19132,Lebu,"Ciudad De Lebu, Lebu, Puerto Lebu",-37.608248271,-73.653557985
19133,Angol,"Angol, Angol', Angolis",-37.795186451,-72.716356099
19134,San Pedro De La Paz,San Pedro De La Pas,-36.838967649,-73.100276414
19135,Cauquenes,"Cauquenes, De Cauquenes, Kaukenes",-35.967096476,-72.322477329
19136,Constitución,"Constitucion, Constitución",-35.333206759,-72.411558937
19137,Linares,"Linares, Zlr, Li Na Lei Si",-35.846668005,-71.593075531
19138,Curicó,"Curico, Curicó, Kuriko",-34.982788798,-71.239426583
19139,San Fernando,San-Fernando,-34.581206061,-70.98952918
19140,Rengo,"Rengo, Ренго",-34.406386328,-70.858336756
19141,Melipilla,"Melipil'Ja, Melipilla, Mellipilla",-33.689089477,-71.215279689
19142,Colina,Colina,-33.204428105,-70.674737562
19143,Quillota,"Kil'Ota, Kiljota, Quillota",-32.883408514,-71.248818042
19144,San Felipe,San Felipe,-32.749759101,-70.725839338
19145,Los Andes,"Andes, Ciudad Los Andes, Lob",-32.833688232,-70.598269398
19146,Illapel,"Il'Japel', Iljapelis, Illapel",-31.633489502,-71.16966789
19147,Ovalle,"Ovl, Oval'E, Ovalje",-30.601059034,-71.199007761
19148,Vallenar,Vallenar,-28.576166924,-70.759377691
19149,Berisso,Berisso,-34.873497777,-57.88302622
19150,Caldera,Caldera,-27.068115544,-70.819209428
19151,Trelew,"Rel, Trelew, Trelju",-43.248946508,-65.305046136
19152,Puerto Madryn,"Madryn, Madrynhyd, Madrynhȳð",-42.769199114,-65.038507806
19153,Viedma,"V'Edma, V'Edmae",-40.8134492,-62.99667777
19154,Tandil,"Tandil, Tandil', Tandilis",-37.32166703,-59.133156732
19155,Moreno,"",-34.634008829,-58.791378732
19156,Merlo,"Merlo, Mei Luo, Meruro",-34.668537177,-58.722245536
19157,Pilar,Pilar,-34.457609603,-58.913845694
19158,San Miguel,"",-34.557468665,-58.735997475
19159,San Justo,San Justo,-34.676596642,-58.560579245
19160,Morón,"6 De Septiembre, Moron, Morón",-34.653439744,-58.619749486
19161,Lomas De Zamora,"L. De Zamora, Lomas De Zamora",-34.760876772,-58.406319923
19162,Avellaneda,"Avel'Janeda, Avelaneda, Aveljaneda",-34.660176214,-58.367435593
19163,Vicente López,"V. Lopez, V. López, Vicente Lopez",-34.529469788,-58.473698127
19164,Berazategui,"",-34.765309252,-58.212775772
19165,Quilmes,"Kil'Mes, Kilmes, Kilmesas",-34.724179433,-58.252645597
19166,Colonia Del Sacramento,"Cyr, Ciudad De La Colonia Del Sacramento, Colonia",-34.462618081,-57.83975891
19167,Carmelo,"Carmelo, Las Viboras, Las Víboras",-34.000227111,-58.284019459
19168,Libertad,"Liberfad, Libertad",-34.634589326,-56.617388776
19169,Santa Lucía,"San Juan Bautista, Santa Lucia, Santa Lucía",-34.453325622,-56.390558272
19170,Canelones,"Canelones, Guadalupe, Villa De Canelones",-34.522778317,-56.277779767
19171,Juan Lacaze,"J.L. Lacaze, Juan L. Lacaze, Juan Lacaze",-34.418878273,-57.452846108
19172,Nueva Helvecia,Nueva Helvecia,-34.299997795,-57.233328072
19173,Ciudad De La Costa,"S'Judad-De-La-Kosta, Siudad De La Kosta",-34.819718514,-55.951999197
19174,Las Piedras,"Las Piedras, Las-P'Edras, Piedras",-34.730195907,-56.219149525
19175,Progreso,"Ingeniero Eduardo Garcia De Zuniga, Ingeniero Eduardo García De Zúñiga, Progreso",-34.667367182,-56.217579031
19176,Pando,"Pando, Villa De Pando, Пандо",-34.717159464,-55.958398169
19177,Maldonado,"Mal'Donado, Maldonadas, Maldonado",-34.899998161,-54.949997596
19178,San Carlos,"San Carlos, Villa De San Carlos",-34.791229139,-54.918236736
19179,Florida,"Ciudad De La Florida, Florida, Флорида",-34.095559193,-56.214168046
19180,Minas,"Ciudad De Minas, Lavalleja, Minas",-34.375889962,-55.237708333
19181,Rocha,"Ciudad De Rocha, Roca, Rocha",-34.48332699,-54.333329304
19182,Benjamín Aceval,"",-24.994722647,-57.552444171
19183,San Nicolás De Los Arroyos,"San Nicolas, San Nicolas De Los Arroyos, San Nicolás",-33.335778028,-60.225229937
19184,Rafaela,"Raf, Rafaehla, Rafaela",-31.250329684,-61.486695899
19185,Dolores,Dolores,-33.530087175,-58.217005754
19186,Mercedes,"Ciudad De Mercedes, Mercedes, Mersedes",-33.252397894,-58.030468073
19187,Fray Bentos,"Frai Bentosas, Fraj Bentos, Fraj-Bentos",-33.121938967,-58.303058876
19188,Gualeguaychu,"Ghu, Gualeguaicu, Gualeguaiču",-33.009367461,-58.517217436
19189,Trinidad,"Porongos, Trinidad, Trinidadas",-33.516497235,-56.899569037
19190,Durazno,"Dzo, Duranzo, Durasnas",-33.380557332,-56.523609188
19191,Young,Young,-32.698436826,-57.626927844
19192,Paso De Los Toros,"Paso De Los Toros, Santa Isabel",-32.816669307,-56.516665718
19193,Paysandú,"Ciudad De Paysandu, Ciudad De Paysandú, Gorad Pajsandu",-32.321387982,-58.075557875
19194,Salto,"Ciudad Del Salto, Sty, Sal'To",-31.3833266,-57.966667353
19195,Bella Unión,"Buv, Bel'Ja Union, Bel'Ja-Un'On",-30.259659033,-57.599189966
19196,Artigas,"Ati, Artigas, Artigasas",-30.399999917,-56.466666438
19197,San Miguel De Tucumán,"Gorad San-Migel'-Deh-Tukuman, San Migel De Tukuman, San Miguel De Tucuman",-26.824135615,-65.222597498
19198,Bermejo,"",-22.73218208,-64.343265358
19199,Guarambaré,"",-25.492082963,-57.455865595
19200,Itá,"",-25.507472896,-57.363188502
19201,Ypané,"",-25.456987617,-57.507592868
19202,Villa Elisa,"",-25.371519492,-57.589825507
19203,Ñemby,"",-25.392453401,-57.547107195
19204,Julián Augusto Saldívar,"",-25.443897175,-57.443045151
19205,Itauguá,"",-25.394730391,-57.353288545
19206,Areguá,"",-25.31294325,-57.385233905
19207,Paraguarí,"",-25.6203504,-57.150510436
19208,Ypacaraí,"",-25.404679847,-57.285775342
19209,Coronel Oviedo,"",-25.450053148,-56.440697052
19210,José Falcón,"",-25.215937176,-57.713093466
19211,Mariano Roque Alonso,"",-25.210865698,-57.532027761
19212,Limpio,Limpio,-25.173637361,-57.478027998
19213,Villa Hayes,"",-25.09199422,-57.525624289
19214,Treinta Y Tres,"Treinta I Tresas, Treinta Y Tres, Trejnta I Tres",-33.233326978,-54.383328584
19215,Melo,"Ciudad De Melo, Mlz, Mel",-32.370275767,-54.167496032
19216,Tacuarembó,"San Fructuoso, Tacuarembo, Tacuarembó",-31.716937135,-55.98110957
19217,Rivera,Villa De Rivera,-30.905338698,-55.550758459
19218,Encarnacion,Encarnacion,-27.337610361,-55.866945071
19219,Caaguazú,"",-25.466172077,-56.018166907
19220,Juan Emilio O'Leary,"",-25.421001275,-55.374057735
19221,Doctor Juan León Mallorquín,"",-25.429344239,-55.252540268
19222,Yguazú,"",-25.463400089,-55.001148872
19223,Minga Guazú,"",-25.491029968,-54.767739396
19224,Hernandarias,"",-25.404175849,-54.632037992
19225,San Alberto,"",-24.976542727,-54.911630765
19226,Santa Fé Del Paraná,"",-25.223717641,-54.704393175
19227,Mbaracayú,"",-25.028274499,-54.824088149
19228,Pedro Juan Caballero,"",-22.547079892,-55.740491126
19229,Mala,"",-12.65733831,-76.629723419
19230,Tocopilla,"Tocopilla, Tokopil'Ja, Tokopilija",-22.09197889,-70.197919656
19231,Mollendo,"",-17.024680551,-72.015352319
19232,Moquegua,Moquegua,-17.193799894,-70.934561922
19233,San Juan De Marcona,"",-15.361965936,-75.16713534
19234,Nazca,Nazca,-14.827719281,-74.93706035
19235,San Vicente De Cañete,"",-13.077735464,-76.387408483
19236,Huaral,"",-11.496167907,-77.207030385
19237,Viacha,"",-16.653482766,-68.302185978
19238,La Rinconada,"",-14.628811155,-69.445581459
19239,Abancay,Abancay,-13.637344007,-72.878872886
19240,Puerto Maldonado,Puerto Maldonado,-12.593861588,-69.186675095
19241,Guadalupe,"",-7.24363707700002,-79.470596947
19242,Jaen,"",-5.70874331499999,-78.807781357
19243,Azogues,"",-2.738841853,-78.84811918
19244,Babahoyo,Babahoyo,-1.80090197099997,-79.53381717
19245,Guaranda,"",-1.59239538600002,-79.001415507
19246,Cerro De Pasco,Cerro De Pasco,-10.666781048,-76.254915565
19247,Oxapampa,"",-10.578023438,-75.403096304
19248,Atalaya,"",-10.729902271,-73.75487954
19249,Pampas,"",-8.19509490000002,-77.895725361
19250,Chachapoyas,Chachapoyas,-6.22928753000002,-77.872140965
19251,Moyobamba,Moyobamba,-6.03472638400001,-76.974673905
19252,Macas,"",-2.30462526000002,-78.117542887
19253,Puyo,"",-1.48230337000001,-78.001078899
19254,Latacunga,"",-0.933611778999989,-78.614880704
19255,Tena,"",-0.991616523999994,-77.81633671
19256,Puerto Francisco De Orellana,"",-0.472255803999985,-76.983732365
19257,Leticia,Leticia,-4.20674440900001,-69.938423795
19258,Villazón,"",-22.090723396,-65.59569086
19259,Tupiza,"",-21.443770236,-65.720835311
19260,Villamontes,"",-21.258600549,-63.472604681
19261,Camiri,"",-20.039065403,-63.520349471
19262,Llallagua,"",-18.422739999,-66.585074517
19263,Sipe Sipe,"",-17.453538754,-66.357578015
19264,Vinto,"",-17.396789503,-66.313577209
19265,Quillacollo,"",-17.397397,-66.281681349
19266,Colcapirhua,"",-17.388446539,-66.240763028
19267,Tiquipaya,"",-17.33816376,-66.218884124
19268,La Guardia,"",-17.89168383,-63.330472805
19269,Yapacani,"",-17.40205898,-63.881351386
19270,Santa Cruz De La Sierra,Santa Cruz De La Sierra,-17.783598805,-63.182202956
19271,Warnes,"",-17.510081005,-63.164716032
19272,Montero,Montero,-17.342020243,-63.255768633
19273,Filadelfia,"",-22.352833745,-60.035758269
19274,Loma Plata,"",-22.384846604,-59.838213636
19275,Guasdualito,"Gdo, Guasdalito, Guasdualito",7.242411328,-70.732346309
19276,Corumba,"Cmg, Corumba, Corumbá",-19.009168424,-57.653329228
19277,Trinidad,Trinidad,-14.834604251,-64.904246396
19278,Santa Ana Del Yacuma,"",-13.745523532,-65.427324099
19279,Santana,"Porto, Porto De Santana, Pôrto",-0.0418648090000033,-51.177552937
19280,Itabira,"Itabira, Itabira De Mato Dentro, Itabira De Matto Dentro",-19.619167746,-43.226937062
19281,Itapipoca,"Imperatriz, Itapipoka, Итапипока",-3.49443803600002,-39.578609579
19282,Kaneohe,"Kane'Ohe, Kāne‘Ohe",21.399938674,-157.798949574
19283,Kahului,"Kakhuluj, Ogg",20.889528415,-156.47431739
19284,Hilo,"Baie De Hilo, Chilo, Hilas",19.7109654965,-155.0797809435
19285,Jesús María,"Jesus Maria, Jesús María",21.96110871,-102.343326033
19286,San Marcos,"La Union, San Marcos, San Marcos La Union",14.963886929,-91.794436344
19287,Antigua Guatemala,"Antigoua Gouatemala, Antigua, Antigua Guatemala",14.561107197,-90.734438997
19288,Newport Beach,"",33.618906031,-117.928949109
19289,San Felipe,"",31.02467642,-114.839186174
19290,Eureka,"Eka, Ehvrika, Jurika",40.802066996,-124.163667238
19291,Santa Barbara,Barbaropolis,34.42082951,-119.698188342
19292,El Segundo,"",33.919176213,-118.416467969
19293,San Mateo,Matthaeopolis,37.562985716,-122.325528808
19294,Alameda,"Alamida, Alaminta",37.765205828,-122.241635676
19295,San José Del Cabo,"San Jose Del Cabo, San José Del Cabo",23.058878891,-109.697706746
19296,Homer,"Hom, Khomer, He Ma",59.642498783,-151.549399511
19297,Unalaska,"Analaska, Iliuliuk, Iluulux",53.87360961,-166.536669214
19298,Nome,"Nom, Noum",64.501109453,-165.406386676
19299,Sitka,"",57.053147151,-135.330876712
19300,Astoria,"Astorija, Astwrya Awrgn",46.187877351,-123.831249197
19301,Nanaimo,"Nanaimo, Nanajmo, Ycd",49.166378275,-123.94002722
19302,Campbell River,"Kehmpbell-River, Kembel River, Kembell-River",50.016339044,-125.244589493
19303,Port Alberni,"Port Alberni, Ypb, Ai Bo Ni Gang",49.241329946,-124.802799432
19304,Powell River,"Pauel River, Powell River, Ypw",49.835835836,-124.522635162
19305,Prince Rupert,"Prins Rupert, Prins-Rupert, Ypr",54.312119185,-130.320585208
19306,Ketchikan,"Ktn, Kechikan, Kecingen",55.342245662,-131.647836382
19307,Kitimat,"Kytymat Kwlwmbya Albrytanyt, كيتيمات، كولومبيا البريطانية",54.052438825,-128.653419027
19308,Olympia,"Olm, Olimpeje, Olimpi",47.03786962,-122.900698283
19310,Port Angeles,"Port Andzeles, Port Andzhelis",48.118148377,-123.430737456
19311,Bellingham,"Belingam, Belinghem",48.759548561,-122.488216594
19312,Squamish,Seukwomisi,49.699247936,-123.156306161
31042,Dioro,"",13.687942113,-5.83135832800002
19313,Port Moody,"Port Mudi, Bwrt Mwdy, Man De Bao",49.27223581,-122.852629494
19314,Juneau,"Dzhuna, Dzhuno, Dzunas",58.301936669,-134.419716213
19315,Gangapur City,"",23.868938335,75.997299026
19316,Duluth,"Dalut, Duljut",46.783269737,-92.106577473
19317,Churchill,"Cercilis, Churchill, Yyq",58.768107622,-94.166735929
19318,Liberia,"Lir, Liberia, Liberii",10.635040933,-85.437719251
19319,San Carlos,"",11.123531789,-84.777837648
19320,Limón,"Ciudad De Limon, Ciudad De Limón, Lio",9.99074276200002,-83.035958295
19321,Tulcán,Tulcán,0.811993557999983,-77.716932146
19322,Mocoa,"",1.14663008899998,-76.648231838
19323,San José Del Guaviare,"",2.57161633300001,-72.642650923
19324,Mitú,Mitú,1.25722610299999,-70.233393
19325,Inírida,"",3.86582415100003,-67.924876135
19326,Villa De Leyva,"",5.63369989,-73.523607555
19327,El Carmen De Bolívar,"",9.71734196199998,-75.121735039
19328,Rubio,"Rubio, Рубио",7.70131031300002,-72.355687183
19329,San Juan De Colón,"Colon, Colón, San Juan De Colon",8.03125336400001,-72.260526101
19330,Coloncito,"",8.32563307200002,-72.089508851
19331,La Grita,La Grita,8.13219242100001,-71.983367817
19332,Tovar,"",8.33204104399999,-71.751177837
19333,Arauca,"",7.08246402999998,-70.757024201
19334,Socopó,"",8.23062048899999,-70.821976916
19335,Ciudad Bolivia,"",8.35304245200001,-70.571206517
19336,Puerto Ayacucho,"Pyh, Pouerto Agiakoutso, Puehrto-Ajakucho",5.658853588,-67.61402474
19337,Elorza,"Eoz, Elorza, Paso Del Viento",7.06088212399999,-69.49764623
19338,Achaguas,Achaguas,7.77917347099998,-68.223728823
19339,Casigua El Cubo,"Cuv, Casigua, Casigua El Cubo",8.74493223100001,-72.519666463
19340,Encontrados,"",9.06085334400001,-72.234129216
19341,El Vigía,"El Vigia, El Vigía, Vig",8.61366330800001,-71.652839768
19342,Ejido,"Egido, Ehkhido, Ejido",8.54665410199999,-71.240866577
19343,Barinitas,"",8.76222115500002,-70.41110622
19344,Trujillo,Trujillo,9.36583050500002,-70.436936106
19345,Machiques,Machiques,10.060771455,-72.55211582
19346,Villa Del Rosario,"Rosario, Villa Del Rosario, Росарио",10.325802291,-72.313427868
19347,Bachaquero,"",9.96209138799998,-71.123768091
19348,Lagunillas,"",10.13008015,-71.259455995
19349,Santa Rita,"",10.536423866,-71.511036391
19350,Tía Juana,"",10.258383587,-71.368648016
19351,Mene Grande,"",9.846392396,-70.926547457
19352,Sabaneta,"",8.75326169499999,-69.935156809
19353,Guanarito,"",8.69625144499997,-69.2083155
19354,Boconó,"Bocono, Boconó",9.25385299700002,-70.251046422
19355,El Tocuyo,"El Tocuyo, Tocuyo",9.78734365499997,-69.79369993
19356,Ospino,"",9.29673330899999,-69.455458915
19357,Turen,"",9.26022046899999,-69.095856494
19358,San Carlos,San Carlos,9.66124070900003,-68.582678747
19359,Tinaco,Tinaco,9.69871204399999,-68.433477402
19360,Quíbor,"Quibor, Quíbor",9.928661035,-69.620099692
19361,Tamaca,"",10.195392864,-69.305456574
19362,Yaritagua,"",10.08000437,-69.126109861
19363,Chivacoa,Chivacoa,10.160284018,-68.894999876
19364,Tinaquillo,"",9.91861257900001,-68.304719467
19365,Cocorote,"",10.319781317,-68.783859364
19366,San Felipe,"",10.339914229,-68.742468545
19367,Aroa,"",10.438612296,-68.894167379
19368,Marín,"",10.388221517,-68.676377335
19369,Moron,"",10.488890575,-68.200279426
19370,San Joaquín,"San Joaquin, San Joaquín",10.263000567,-67.785786245
19371,Mariara,"",10.29644442,-67.718129042
19372,El Limon,"El Limon, El Limón",10.305894378,-67.63211642
19373,Tucacas,Tucacas,10.79060075,-68.325765875
19374,Sonsonate,"",13.720357888,-89.727734917
19375,Turín,"",13.963082323,-89.766389747
19376,Atiquizaya,"",13.974269274,-89.755022797
19377,Chalchuapa,"",13.985321225,-89.680242125
19378,Lourdes,"",13.725051368,-89.368415994
19379,Zaragoza,"",13.588670467,-89.287911348
19380,San Juan Nonualco,"",13.50587533,-88.89785756
19381,Zacatecoluca,"",13.50808482,-88.870218682
19382,San Vicente,"",13.643313727,-88.783639062
19383,Cuscatancingo,"",13.727274358,-89.180798318
19384,San Martín,"",13.739244305,-89.055698867
19385,Cojutepeque,"",13.721739382,-88.934536899
19386,Ilobasco,"",13.842446852,-88.85016227
19387,Sensuntepeque,Sensuntepeque,13.876183204,-88.628488743
19388,Chalatenango,"",14.041386479,-88.939405878
19389,Usulután,"",13.343817541,-88.438243078
19390,Jucuarán,"",13.253894436,-88.247880414
19391,Santa Maria,"",13.348988019,-88.416692673
19392,Ereguayquín,"",13.344033541,-88.389629791
19393,Concepcion Batres,"",13.342512547,-88.371391371
19394,El Tránsito,"",13.354977492,-88.347221978
19395,Chirilagua,"",13.219307588,-88.139651389
19396,Intipucá,"",13.196785187,-88.055371259
19397,La Unión,"",13.337153071,-87.843048691
19398,San Rafael Oriente,"",13.378440389,-88.354021448
19399,San Francisco Gotera,"",13.696318994,-88.102679551
19400,Santa Rosa De Lima,"",13.625543305,-87.891337979
19401,El Sauce,"",13.668837615,-87.798620386
19402,Rivas,"",11.438939904,-85.828736034
19403,Jinotepe,Jinotepe,11.847142112,-86.199084408
19404,Granada,"",11.934725228,-85.958767463
19405,Juigalpa,"",12.103343987,-85.371308542
19406,Boaco,"",12.472027369,-85.658393782
19407,Matagalpa,"",12.923064889,-85.91841614
19408,Esteli,Esteli,13.090077155,-86.354639725
19409,San Sebastián De Yalí,"",13.304681213,-86.185305469
19410,Jinotega,Jinotega,13.091472149,-86.00286277
19411,San Rafael Del Norte,"",13.212962616,-86.110934295
19412,Santa María De Pantasma,"",13.349114018,-85.944255027
19413,Somoto,"",13.483708427,-86.582622224
19414,Ocotal,"",13.633314771,-86.476386691
19415,Wiwili De Jinotega,Wiwili De Jinotega,13.620548327,-85.817949581
19416,El Cuá,"",13.369966927,-85.675156208
19417,'Am Alduwm,ام الدوم,22.627709742,41.353785671
19418,Alzaahirih,الظاهريه,24.923982324,42.411869519
19419,Albasiri,البصيري,25.197128767,42.301821836
19420,Alrakna,الركنة,25.289497759,42.572831061
19421,Ash Shubaykiyah,الشبيكية,25.254334083,43.285831955
19422,Al Qurayn,القرين,26.009253714,43.368671998
19423,Dukhnah,دخنة,25.361000087,43.614000228
19424,Ormara,اورماڑا,25.210563365,64.63749136
19425,Xarsingma,下司马镇,27.489304526,88.905057887
19426,Gé Jí Xiàn,革吉县,32.389166554,81.142970217
19427,Jílóng Xiàn,吉隆县,28.855875184,85.295051231
19428,Congdu,"",28.158936531,85.979980125
19429,Yacheng,"",18.371882902,109.16327929
19430,Tiānyá Qū,天涯区,18.301132424,109.448159266
19431,Jí Yáng Qū,吉阳区,18.282945873,109.574227783
19432,Tengqiao,"",18.402025392,109.748358385
19433,Xuwen,"",20.328275841,110.171740133
19434,Yáng Xī Xiàn,阳西县,21.754193391,111.613843472
19435,Simao,思茅区,22.789626821,100.975835222
19436,Longyang District,隆阳区,25.124168575,99.164512652
19437,San José De Bocay,"",13.542100171,-85.540071301
19438,Candelaria De La Frontera,"",14.115991652,-89.651482752
19439,Jutiapa,"Juliapa, Jutiapa, Khutiapa",14.29166638,-89.895827179
19440,Chiquimula,"Ciq, Chikimula, Chiquimula",14.799997649,-89.545827716
19441,Zacapa,"Sakapa, Zacapa, Сакапа",14.972216393,-89.530559283
19442,La Union,"La Union, La Unión",14.966667917,-89.283325868
19443,Puerto Barrios,"Pbr, Puehrto-Barrios, Puerto Barijosas",15.727776576,-88.594437392
19444,Bluefields,Bluefields,12.013150883,-83.764905595
19445,San Andrés,San Andrés,12.583005882,-81.697565171
19446,Bilwi,Puerto Cabezas,14.028993533,-83.381759277
19447,Belize City,"Altepetl Belice, Bze, Belice",17.499517797,-88.197557135
19448,San Miguel De Cozumel,"Czm, Conzumel, Cozumel",20.50099562,-86.945977629
19449,Nueva Gerona,"",21.885459542,-82.806004804
19450,Sancti Spiritus,Sancti Spiritus,21.927250859,-79.442854569
19451,Las Piedras,"Lsp, Las Piedras",11.717299682,-70.219938059
19452,Willemstad,"Gorad Vilemstad, Vilemstad, Vilemstadas",12.108397465,-68.933537706
19453,Montego Bay,"Bahia Montego, Bahía Montego, Mbj",18.471158032,-77.91882826
19454,Manzanillo,"",20.344616807,-77.118934271
19455,Palma Soriano,"",20.211187893,-75.993466712
19456,Florida,Florida,21.526820117,-78.225767412
19457,Morón,"",22.108636063,-78.627750647
19458,Moa,"",20.66270241,-74.945074815
19459,Jacmel,"",18.235255567,-72.537508885
19460,Pedernales,"",18.038376932,-71.744027368
19461,Léogâne,"",18.511108856,-72.633421463
19462,Pétionville,Pétionville,18.513214847,-72.286018489
19463,Cité Soleil,"",18.578275561,-72.335599271
19464,Tabarre,"",18.561994633,-72.250716144
19465,Croix-Des-Bouquets,"",18.577542065,-72.229620236
19466,Jimaní,"",18.491686942,-71.850217902
19467,Saint-Marc,Saint-Marc,19.102023762,-72.699508173
19468,Hinche,Hinche,19.144553075,-72.008752206
19469,Saint Michel De L’Attalaye,"",19.374025068,-72.333209781
19470,Ouanaminthe,"",19.548529802,-71.725829448
19471,Comendador,"",18.877497248,-71.702776049
19472,San José De Ocoa,"",18.5466092,-70.506307802
19473,Dajabón,"",19.548777301,-71.708288525
19474,Sabaneta,"",19.477929612,-71.341247636
19475,Mao,"",19.551859787,-71.078129291
19476,Salcedo,"",19.377616052,-70.417617691
19477,Monte Plata,"",18.806996057,-69.783988973
19478,Cotuí,"",19.052717479,-70.149387369
19479,Nagua,"",19.383196028,-69.847398195
19480,Samaná,"",19.205608807,-69.336848436
19481,Port-De-Paix,Port-De-Paix,19.939974083,-72.830759097
19482,Puerto Ordaz,"Pzo, Puehrto-Ordas, Puerto Ordasas",8.2730689055,-62.7583822295
19483,San Félix,"Las Tablas, Puerto Tablas, Sfx",8.3482198355,-62.639676672
19484,Upata,Upata,8.00861396400001,-62.398886895
19485,Calabozo,"Clz, Calabozo, Kalabosas",8.92416194399999,-67.42928881
19486,El Sombrero,"",9.38630091599998,-67.05817994
19487,Chaguaramas,"Chaguaramas, Chaguaramos",9.33855162499998,-66.252548476
19488,Lezama,"",9.71778296000002,-66.395557849
19489,El Socorro,"El Socorro, Socorro",8.99352013999999,-65.742466716
19490,Pariaguán,"",8.84357179800003,-64.710526746
19491,Valle De La Pascua,"Val'E-De-La-Paskua, Valle De La Pascua, Valle De Pascua",9.21554016499999,-66.007335553
19492,Tucupido,"",9.27496240400001,-65.771527588
19493,Zaraza,Zaraza,9.35029207399998,-65.324517551
19494,San Juan De Los Morros,"San Juan De Los Morros, San Juan De Los Moros",9.91152061000003,-67.353806142
19495,Turmero,Turmero,10.228562218,-67.474207613
19496,La Victoria,La Victoria,10.218441762,-67.330167746
19497,Charallave,"",10.242471657,-66.857228822
19498,Altagracia De Orituco,"",9.86005433600002,-66.381387411
19499,Caucagua,"",10.283101978,-66.375906435
19500,Mamporal,"Mamporal, Manporal",10.364610121,-66.130437013
19501,Tacarigua De Mamporal,"Tacarigua De Mamporal, Tacarigua De Maniporal",10.396861479,-66.150826423
19502,Higuerote,"Hge, Higuerote",10.481060609,-66.100827143
19503,Catia La Mar,"Catia La Mar, Catia De La Mar",10.60383357,-67.030338562
19504,Valle De Guanape,"El Valle De Guanape, Valle De Guanape",9.90999061600002,-65.674049016
19505,San José De Barlovento,"San Jose, San José",10.301250399,-65.990528127
19506,Puerto Píritu,"Puerto Piritu, Puerto Píritu",10.061302452,-65.042067291
19507,San José De Guanipa,"El Tigrito, San Jose De Guanipa, San José De Guanipa",8.88724410600003,-64.165115641
19508,Cantaura,"Cantaura, Cantura",9.30571076899997,-64.358407792
19509,Punta De Mata,"Punta De Mata, Punta De Mota",9.69131407700002,-63.609206081
19510,Temblador,"",9.00716408,-62.642155827
19511,Barrancas,"Barrancas, San Rafael De Barrancas",8.69978392899998,-62.197436279
19512,Tucupita,"Tucupita, Tukupita, Тукупита",9.05806335699998,-62.049998926
19513,Porlamar,"Pmv, Porlamar, Porlamaras",10.957712017,-63.869709937
19514,Pampatar,"Pampatar, Panpatar, Pompatar",10.993074674,-63.807262034
19515,Juan Griego,"",11.081722472,-63.965487517
19516,Caripito,"Carapito, Caripito",10.110262237,-63.096329833
19517,Linden,"",6.01293122499999,-58.307216858
19518,New Amsterdam,"",6.24533270500001,-57.515548833
19519,San Fernando,San Fernando,10.278414563,-61.45372724
19520,Kenosha,Kenosa,42.58473867,-87.821187787
19521,Mayaguez,"Maz, Magiagoues, Majaguehs",18.201069217,-67.139616082
19522,Caguas,"Kaguas, Kaguasas, Kagvas",18.234117072,-66.048496872
19523,Frederiksted,"",17.712465862,-64.881539495
19524,Arecibo,Are,18.472449526,-66.715726943
19525,Artemisa,"",22.813697467,-82.760487504
19526,San José De Las Lajas,"",22.962439814,-82.149610686
19527,Key West,"Caio Os, Cayo Hueso",24.555239322,-81.781629301
19528,Cárdenas,"",23.03851648,-81.204848834
19529,Sarasota,"Sa La Suo Ta, Saeleosota",27.336429612,-82.530646513
19530,Palm Beach,Palm Bich,26.705617881,-80.036428963
19531,Gulfport,"Gpt, Galfport, Galfporta",30.367418305,-89.092819204
19532,Pensacola,Pensacola I Florida,30.421305569,-87.21690794
19533,Apalachicola,Apalachikola,29.725995621,-84.985597236
19534,Brunswick,"Bransvik, Braunshvejg",31.14994687,-81.491488575
19535,Gary,"Gyy, Gehri",41.593366022,-87.346426371
19536,Racine,"Rac, Rasijn",42.726128049,-87.782847955
19537,Appleton,Aplton,44.261926306,-88.415378678
19538,Sheboygan,Shebojgan,43.75082755,-87.714529255
19539,Sandusky,"Sandaski, Sandwsky",41.448939156,-82.707959235
19540,Lorain,"Lorehjn, Lorejn",41.452818139,-82.182366042
19541,Sarnia,"Gorad Sarnija, Sarnia, Sarnija",42.97865794,-82.404066569
19542,Port Colborne,"Port Kolborn, Port-Kolborn, Bwrt Kwlbwrn Awntaryw",42.886539624,-79.253300198
19543,Welland,"Veland, Velland, Wei Lan",42.983418919,-79.249575918
19544,Hopewell,"Khopuehlla, Khoupvel, Hopuu~Eru",37.304317851,-77.287197533
19545,Boende,"",-0.283661632000019,20.882634487
19546,Washington D.C.,"Ouasinkton, Vashington, Vasingtonas",38.895105868,-77.036368634
19547,Annapolis,"Anapoles, Anapoli",38.978445502,-76.492177023
19548,Salisbury,Salisbjuri,38.360665714,-75.599367443
19549,Wilmington,"Gorad Uilmingtan, Ilg, Uilmington",39.745948632,-75.546587174
19550,Gangawati,"",15.431299877,76.52932719
19551,Camden,"Kamdehn, Kamden",39.925947842,-75.119615549
19552,Belleville,"Bel'Vil', Belleville, Belvil",44.166819224,-77.382768113
19553,Albany,Albania,42.652575872,-73.756229534
19554,Troy,"Traj, Troj, Troja",42.728409539,-73.691789817
19555,Brockville,"Brokvil, Brokvil', Brokvill",44.595667341,-75.689884545
19556,Portland,"",43.661466943,-70.255325904
19557,Bangor,Bangur,44.801176939,-68.77780689
19558,Mindelo,"Mihdelo, Mindelas, Mindello",16.890139473,-24.980417167
19559,Porto Novo,"Carvoeiros, Vila Do Porto Novo, Vila Do Pôrto Novo",17.019689404,-25.064706297
19560,Ribeira Grande,"Puvuason, R'Bera Grend, Ribeira Grande",17.182912229,-25.064805708
19561,Waterloo,"",8.33898001300003,-13.069572458
19562,Kamsar,"",10.663975806,-14.585278303
19563,Kambia,"",9.125077062,-12.919336117
19564,Coyah,"",9.70904399900002,-13.388954055
19565,Mamou,"",10.139494109,-11.951606366
19566,Pita,"",11.056464083,-12.395047919
19567,San-Pédro,"San Pedras, San Pedro",4.74851327599998,-6.63629720099999
19568,Port-Bouët,"Petit Bassam, Pickaniny Bassam, Port Buet",5.25677254499999,-3.96298943699998
19569,Yopougon,Yopougon,5.34644365100002,-4.06627748300002
19570,Treichville,Treichville,5.288123907,-4.00625674700001
19571,Koumassi,Koumassi,5.29716436699999,-3.96752991699998
19572,Marcory,Marcory,5.31198280199999,-3.99362980199999
19573,Le Plateau,"Le Plateau, Plateau",5.32183325900002,-4.01966668799997
19574,Adjamé,"",5.350534133,-4.02463916599999
19575,Cocody,Cocody,5.335072201,-4.003898757
19576,Abobo,"Abobo, Abobo-Gare",5.416130345,-4.015895704
19577,Anyama,"An'Jame, Aniama, Anyama",5.49462350099998,-4.05182804700002
19578,Cape Coast,"Cabo Corso, Cape Coast, Cape Coast Castle",5.10535270999998,-1.24659886199998
19579,Soubré,"Soubre, Soubré",5.783774231,-6.59387588700002
19580,Gagnoa,"Ggn, Gagnoa, Gan'Oa",6.13193320300002,-5.950599211
19581,Daloa,"Djo, Daloa, Da Luo Ya",6.87735042999998,-6.450218517
19582,Koidu Town,"",8.41801766600003,-10.843085732
19583,Kissidougou,"",9.192392267,-10.098267002
19584,Divo,"Boudougou, Div, Divas",5.83739149600001,-5.35722731599998
19585,Oumé,"Oume, Oumé, Ume",6.3830906,-5.417585551
19586,Agboville,"Agbovil', Agbovile, Agbovilis",5.92801209800001,-4.21318833800001
19587,Abengourou,"Abengourou, Abenguru, Ogo",6.729724078,-3.49638648500002
19588,Sunyani,"Nyi, Sunyani",7.3399124,-2.32675612000003
19589,Techiman,"Takyiman, Techiman, Tekyiman",7.58417132699998,-1.93814682599998
19590,Parcelles Assainies,"",14.757895833,-17.441420264
19591,Mansôa,"",12.073333619,-15.318887583
19592,Bignona,"",12.804683908,-16.232590571
19593,Serrekunda,"",13.438758125,-16.67480363
19594,Koungheul,"",13.976586764,-14.801407855
19595,Fatick,"",14.335149689,-16.420433247
19596,Touba,"",14.818785066,-15.898516538
19597,Louga,"",15.620870545,-16.226542598
19598,Tinghir,"Tineghir, Tinerhir, Tinghir",31.514719769,-5.53277604499999
19599,Kita,Kita,13.034898398,-9.489496175
19600,Sikasso,"Kss, Sikasas, Sikaso",11.317552937,-5.66653795799999
19601,Koulikoro,"Koulikoro, Koulikoro-Liberte, Koulikoro-Liberté",12.862729154,-7.55984614599998
19602,Koutiala,"Ktx, Koutiala, Kutiala",12.391729721,-5.46420984600002
19603,Tichit,"Tichit, Tichitt, Tishit",18.441336663,-9.49393765500002
19604,Horta,"Hor, Horta, Orta",38.533329956,-28.63332563
19605,Ponta Delgada,"Pdl, Ponta Delgada",37.7429596885,-25.6675211045
19606,Dakhla,"Ad - Dakhla, Ad Dakhla, Dajla",23.6963288905,-15.945815881
19607,Smara,"Asmara, Es-Semara, Es-Smara",26.738409237,-11.671937093
19608,Mochudi,"Mochudi, Mochudi Village, Мочуди",-24.416668684,26.149996363
19609,Funchal,"Fnc, Funchal, Funsala",32.651878842,-16.9073821265
19610,Tan-Tan,"Gorad Tan-Tan, Tta, Tan-Tan",28.437988776,-11.10320709
19611,Guelmim,"Gln, Gelmima, Gelmimas",28.986959366,-10.057375682
19612,Tiznit,"Tiznit, Tiznitas, Ti Zi Ni Te",29.697416247,-9.73161761199998
19613,Taroudant,"Taroudannt, Taroudant, Tarudant",30.470278854,-8.87694986399998
19614,Ouarzazate,"Ozz, Ouarzazat, Ouarzazate",30.918935884,-6.893408072
19615,Essaouira,"Amegdul, As Suwayrah, As-Sawira",31.512496778,-9.76999794300002
19616,Chichaoua,"Chichaoua, Chichaua, Mzala Chichaoua",31.543506142,-8.76274936499999
19617,Sebt Gzoula,"Es Sebt, Es Sebt Gzoula, Gzoula",32.107785665,-9.08365645600003
19618,Ben Guerir,"Ben Guerir, Benguerir",32.240877081,-7.95396791600001
19619,Berrechid,"Barrechid, Berrechid, Bev-Rechid",33.265527082,-7.58753902400002
19620,Oued Zem,"",32.862697851,-6.57358997599999
19621,Khenifra,"Chenifra, Chunajfira, Jenifra",32.934918034,-5.66166897900001
19622,Errachidia,"Al-Rashidiyya, Ar-Raszidijja, Erh",31.931399939,-4.42662690100002
19623,Bouarfa,"Bordj De Bou Arfa, Bou Arfa, Bouafra",32.533789795,-1.96208672099999
19624,Mecheria,Mecheria,33.542838365,-0.27504862699999
19625,Sidi Slimane,"Sidi Slamain, Sidi Sliman, Sidi Slimane",34.264788195,-5.92597981900002
19626,Sidi Kacem,"Petitjean, Pettijean, Sidi Kacem",34.221489385,-5.70774877700001
19627,Ksar El-Kebir,"Alcazarquebir, Alcazarquivir, Alcazquivir",35.000435966,-5.90377691600003
19628,Assilah,"Arcila, Arcilas, Arsila",35.465216425,-6.03414584400002
19629,Faro,"Fao, Faro, Faru",37.019365602,-7.93222851100001
19630,Taourirt,"",34.40730707,-2.89731761500002
19631,Al Hoceima,"A Hoseima, Ahu, Al Hoceima",35.251647363,-3.93722704999999
19632,Melilla,"Ciudad Autonoma De Melilla, Ciudad Autónoma De Melilla, Ciudad De Melilla",35.293686178,-2.93922593100001
19633,Berkane,"Berkan, Berkane, Berkawe",34.919998819,-2.31999715000001
19634,Maghnia,Maghnia,34.847198138,-1.72965374099999
19635,Bir El Djir,Bir El Djir,35.719870307,-0.567511342999978
19636,Aveiro,"Abeiro, Aveiro, Avejru",40.644266188,-8.64553838000001
19637,Viana Do Castelo,"Viana Do Castelo, Vianna Do Castello",41.693229583,-8.83286805699998
19638,Pontevedra,"Pte, Pontevedra, Pontevedro",42.430996844,-8.64434588500001
19639,Ferrol,"El Ferrol, Ferrol",43.483209225,-8.23688617400001
19640,Escanaba,"Ehskanaba, Eskanaba",45.745245794,-87.064579109
19641,Cornwall,"Kornvol, Ycc, Kang Wo Er",45.018089487,-74.728148767
19642,Lévis,"Levi, Li Wei, Lwy Kbk",46.80325865,-71.177929853
19643,Rimouski,"Rimouski, Rimuski, Yxk",48.448788925,-68.523958505
19644,Bathurst,"Baterst, Zbf, Ba Se Si Te",47.608966081,-65.650634407
19645,Summerside,"Samersajd, Summerside",46.395929438,-63.787616798
19646,Charlottetown,"Baile Shearlot, Baile Sheàrlot, Carlotauno",46.238988127,-63.134138667
19647,Campbellton,"Kehmpbelton, Kan Bei Er Dun, Кэмпбелтон",47.998808901,-66.676950613
19648,Sept-Îles,"Sept-Iles, Sept-Îles, Set Il",50.213335386,-66.380186458
19649,Corner Brook,"Korner-Bruk, Ynf, Karnr Brwk",48.950005725,-57.952019917
19650,Hopedale,"",55.460076535,-60.211040271
19651,Truro,"Trouro, Truro, Truru",50.265259951,-5.05435614499999
19652,Molepolole,"Molepolole, Molepololė, Mo Lai Bo Luo Lai",-24.406588729,25.495078238
19653,Waterford,"Port Lairge, Port Láirge, Purt Largey",52.258328201,-7.11193611200002
19654,Newry,"An Tiur, An Tïúr, Iubhar Cinn Tragha",54.178406772,-6.33738601300001
19655,Manzini,"Bremersdorp, Mts, Maneini",-26.498836543,31.380039902
19656,Inverness,"Inv, Inbhear Nis, Inbhir Nis",57.479079281,-4.22397929099998
19657,Upington,"Apington, Utn, Upington",-28.447759987,21.256119348
19658,Swakopmund,"",-22.676782823,14.53139837
19659,Tsabong,"Tsabong, Tshabong",-26.049999514,22.449995606
19660,Grahamstown,"Grahamstad, Grahamstown, Grehkhehmstaun",-33.304219667,26.532755682
19661,East London,"Buffalo City, Els, East London",-33.015289435,27.911617129
19662,Thaba Nchu,"Tcu, Thaba Nchu, Thabantsjoe",-29.209318644,26.838979338
19663,Mthatha,"Mthatha, Utt, Umtata",-31.588926197,28.784428797
19664,Ladysmith,"Lay, Ladysmith",-28.5587385,29.778955931
19665,Richards Bay,"Rcb, Ricardusbaia, Richards Bay",-28.768255858,32.05932911
19666,Klerksdorp,"Kxe, Klerksdorp, Клерксдорп",-26.852129992,26.666715594
19667,Welkom,"Velkom, Velkomas, Wel",-27.977417552,26.735056794
19668,Krugersdorp,"Krjugersdorpa, Krugersdorp, Krugersdorpas",-26.085769857,27.775146228
19669,Sandton,"Sandtwn, Santon, ساندتون",-26.055237491,28.05942798
19670,Rustenburg,"Restenberha, Rjustenburg, Rustemburg",-25.667559693,27.242078568
19671,Kanye,"Gorad Kane, Kan'E, Kane",-24.96674627,25.332727951
19672,Ramotswa,"Ramotswa, Ramoutsa",-24.871576187,25.869886093
19673,Newcastle,"Ncs, Newcastle",-27.757958016,29.93179776
19674,Secunda,"Secunda, Sekunda",-26.549996819,29.166666119
19675,Mokopane,"Potgietersrus, Potgietersrust, Potgitersrus",-24.19435616,29.009738308
19676,Polokwane,"Gorad Palakvaneh, Pietersburg, Petriburgum",-23.904489933,29.468848793
19677,Louis Trichardt,"Lcd, Louis Trichardt",-23.043846211,29.903186886
19678,Praia De Bilene,"",-25.279584896,33.245844211
19679,Xai-Xai,Xai-Xai,-25.044478928,33.640726477
19680,Inhambane,Inhambane,-23.865956602,35.384360823
19681,Maxixe,"",-23.861560121,35.348932478
19682,Otjiwarongo,"",-20.463800538,16.649323072
19683,Opuwo,"",-18.055883609,13.837069418
19684,Ondjiva,"N'Giva, N'Jiva, N’Giva",-17.066666452,15.733329594
19685,Okahandja,"",-21.979227385,16.912814915
19686,Ghanzi,"Gnz, Ganzi, Ghanzi",-21.69784812,21.645808637
19687,Namibe,"Msz, Mocamedes, Mossamedes",-15.196105664,12.152218315
19688,Lubango,"Lubangas, Lubango, Sdd",-14.917169889,13.492496931
19689,Benguela,"Bug, Bengela, Benguela",-12.576257666,13.405467313
19690,Lobito,"Llt, Lobitas, Lobito",-12.3616426155,13.5512612705
19691,Menongue,"Menonge, Spp, Serpa Pinto",-14.658497524,17.690987499
19692,Ilebo,"",-4.33164136099998,20.58825028
19693,Luena,"Luo, Luehna, Luena",-11.783329647,19.916668728
19694,Port-Gentil,"Pog, Port Gentil, Port Zhantil",-0.719327218999979,8.78150811299997
19695,Sumbe,"Angungescapolo, Ndd, Ngunza",-11.206049681,13.843706889
19696,N'Dalatando,"Dalatando, N'Dalatando, Ndalatanda",-9.29781955800001,14.911619701
19697,Malanje,"Meg, Malandje, Malange",-9.54014799499998,16.340957426
19698,Uíge,"Carmona, Uige, Uije",-7.60873847400001,15.061307044
19699,M'Banza Congo,"Mbanza Congo, Mbanza Kongo, San Salvador",-6.267028864,14.240096649
19700,Dilolo,"",-10.686634961,22.343517074
19701,Saurimo,"Henrique De Carvalho, Saurimo, Saurimu",-9.66077896500002,20.391547143
19702,Lucapa,"Lbz, Lucapa, Lukapa",-8.41914891599998,20.744656093
19703,Cabinda,"Cab, Cabinda, Kabinda",-5.56011153050002,12.191921755
19704,Tshela,"",-4.98984897100001,12.93934586
19705,Dolisie,"",-4.20053893599999,12.679157002
19706,Sibiti,"",-3.68486369999999,13.34927606
19707,Mbanza-Ngungu,"",-5.25000632899997,14.866660398
19708,Kwamouth,"",-3.18239590600001,16.204360526
19709,Franceville,"Franceville, Fransvil, Fransvil'",-1.63332720699998,13.583567531
19710,Bolobo,"",-2.15736991350002,16.2300146885
19711,Kenge,"",-4.80594827800002,17.038688363
19712,Masi Manimba,"",-4.774875915,17.886997639
19713,Kikwit,Kikwit,-5.03830475799998,18.817841052
19714,Idiofa,"",-4.96991855900001,19.588521169
19715,Bandundu,Bandundu,-3.32018530099998,17.377491875
19716,Maun,"Mub, Maun, Маун",-19.983328647,23.416667863
19717,Serowe,"Serooue, Serova, Serove",-22.387537593,26.710765901
19718,Francistown,"Frw, Francistown, Fransistaoun",-21.169946438,27.507869902
19719,Livingstone,"",-17.853132499,25.86142613
19720,Musina,"",-22.348806263,30.040737782
19721,Kwekwe,"",-18.91666683,29.816665766
19722,Kadoma,"",-18.349997818,29.916668827
19723,Manica,"",-18.936732242,32.875954835
19724,Sakania,"",-12.748642909,28.556279799
19725,Chipata,"",-13.636916509,32.64919183
19726,Mpika,Mpika,-11.84177989,31.402431804
19727,Muchungue,"",-20.388812867,33.938013172
19728,Inchope,"",-19.211145537,33.932766195
19729,Zomba,"Zomba, Jomba, Song Ba",-15.385959831,35.31879611
19730,Lichinga,"",-13.299908489,35.245860431
19731,Mzuzu,"Kaningina, Mzouzou, Mzuzo",-11.465559042,34.020709309
19732,Kamina,"",-8.73644702299998,24.995233932
19733,Kolwezi,Kolwezi,-10.716991828,25.466989361
19734,Kambove,"",-10.87606613,26.595966905
19735,Likasi,"",-10.989159633,26.739741274
19736,Bukama,"",-9.20203297900002,25.852520669
19737,Musumba,"",-8.361414169,22.641519266
19738,Kanyama,"",-7.509477909,24.171575548
19739,Mbuji Mayi,"",-6.12589148400002,23.599808059
19740,Ngandajika,"",-6.73425281300001,23.951436515
19741,Ankoro,"",-6.755038222,26.94323938
19742,Kasama,"",-10.208836059,31.188250744
19743,Mbeya,Mbeya,-8.90650577600002,33.468669733
19744,Sumbawanga,"",-7.95238396500002,31.623187335
19745,Lodja,"",-3.524101906,23.601018553
19746,Kongolo,"",-5.385640233,26.999241634
19747,Kindu,Kindu,-2.94937342899999,25.918445379
19748,Lubutu,"",-0.740333126999985,26.581548968
19749,Baraka,"",-4.10561185300003,29.095066934
19750,Rumonge,Rumonge,-3.97359593300001,29.438599925
19751,Bubanza,"Bubanza, Бубанза",-3.08039935400001,29.390999134
19752,Makamba,"Makamba, Макамба",-4.134798725,29.803998321
19753,Bururi,"",-3.95189702800002,29.687097834
19754,Rutana,Рутана,-3.92789863299998,29.991998496
19755,Mwaro,Mwaro,-3.51127696200001,29.703338263
19756,Muramvya,Muramvya,-3.26819702900002,29.607898182
19757,Kayanza,Kayanza,-2.922099049,29.629295588
19758,Karuzi,Karuzi,-3.101387262,30.162777246
19759,Ruyigi,"Rujigi, Ruyigi, Руйиги",-3.47638861500002,30.248609869
19760,Cankuzo,"Cankuzo, Kankuzo, Канкузо",-3.21859824699999,30.552799534
19761,Muyinga,"Mujinga, Muyinga, Муйинга",-2.845099887,30.341399462
19762,Tabora,"",-5.020241838,32.809769125
19763,Gisenyi,"",-1.69354144200003,29.25985171
19764,Kirundo,"Kre, Kirundo, Кирундо",-2.58449703100001,30.09589854
19765,Musanze,"",-1.50404727400002,29.636306557
19766,Kirumba,"",-0.559703920000004,29.188567523
19767,Mbarara,"",-0.610949694999988,30.653302093
19768,Bukoba,"",-1.33114903299997,31.812560003
19769,Masaka,"",-0.339024888999973,31.746581293
19770,Songea,Songea,-10.678723996,35.648356664
19771,Morogoro,Morogoro,-6.81616145300001,37.669387791
19772,Zanzibar City,Zanzibar City,-6.16649030500002,39.207427039
19773,Mtwara,"",-10.281119242,40.181339763
19774,Tanga,Tanga,-5.07219411,39.099342013
19775,Arusha,Arusha,-3.36695359599997,36.691551084
19776,Moshi,"",-3.35546964600002,37.342603726
19777,Musoma,"",-1.49981729299998,33.808301242
19778,Kisii,"",-0.669408938000004,34.767791529
19779,Kericho,"",-0.366596268000023,35.283295766
19780,Kibwezi,"",-2.41033879499997,37.965526991
19781,Machakos,"",-1.52124619900002,37.266086062
19782,Nyeri,"",-0.419295535999993,36.951699442
19783,Kitui,"",-1.36659987799999,38.016597267
19784,Malindi,"",-3.216595756,40.116589547
19785,Le Port,"La Point-Aux-Galets, Le Port, Le Port Des Galets",-20.937297459,55.291886426
19786,Antsiranana,"",-12.2804585555,49.2920165535
19787,Invercargill,"Ivc, Invercargill, Inverkargilas",-46.399999174,168.349997584
19788,Geraldton,"Dzeraldton, Dzheral'Dton, Dzheraldton",-28.778967533,114.61458599
19789,Bukittinggi,"",-0.305194036999978,100.369489028
19790,Serang,"",-6.11854275000002,106.1551424895
19791,Cilegon,Cilegon,-6.01738796000001,106.053765074
19792,Tangerang Selatan,"",-6.295536239,106.708548199
19793,Pangandaran,"",-7.69540359299998,108.657251144
19794,Ciamis,"",-7.33016269699999,108.367996914
19795,Banjar,"",-7.37622899399997,108.538964663
19796,Cilacap,"",-7.726795455,109.009658097
19797,Purwokerto,"",-7.42789776799998,109.240849082
19798,Kebumen,"",-7.66868721100002,109.651944777
19799,Purbalingga,"",-7.38886043899998,109.360161558
19800,Cianjur,"",-6.82409491800001,107.137396316
19801,Cimahi,"",-6.87314920300003,107.542309039
19802,Purwakarta,"",-6.56072907499998,107.44397547
19803,Sumedang,"",-6.85923976399999,107.920694377
19804,Majalengka,"",-6.83518737000003,108.227759529
19805,Subang,"",-6.56897753800001,107.758735588
19806,Karawang,"",-6.30419870100002,107.307896068
19807,Brebes,"",-6.870593214,109.036882977
19808,Pekalongan,"",-6.893961612,109.673175684
19809,Indramayu,"",-6.32642860300001,108.322916112
19810,Wates,"",-7.85836137799998,110.157571557
19811,Bantul,"",-7.88774174899999,110.327409812
19812,Wonosari,"",-7.96508740899998,110.600801611
19813,Wonogiri,"",-7.81443707099999,110.925871184
19814,Purworejo,"",-7.70814303700001,110.008527712
19815,Banjarnegara,"",-7.39610990699998,109.695158087
19816,Sleman,"",-7.69024661600002,110.341985248
19817,Wonosobo,"",-7.36582504,109.906126161
19818,Klaten,"",-7.70805753799999,110.604851594
19819,Sukoharjo,"",-7.68258292399997,110.841998097
19820,Karanganyar,"",-7.592457545,110.969813491
19821,Sragen,"",-7.42739376999998,111.023673755
19822,Purwodadi,"",-7.08112478999999,110.917285222
19823,Kendal,"",-6.92169948999998,110.204033853
19824,Demak,"",-6.89478510800001,110.638538446
19825,Kudus,"",-6.81708844899998,110.838184569
19826,Jepara,"",-6.59064944300002,110.667315819
19827,Blora,"",-6.96915178199998,111.413048045
19828,Krui,"",-5.16579369900001,103.940110853
19829,Tais,"",-4.07764447599999,102.577201836
19830,Pagar Alam,"",-4.02094922499998,103.250155882
19831,Muara Enim,"",-3.650087853,103.771955591
19832,Lubuklinggau,"",-3.29191192500002,102.871572544
19833,Kota Agung,"",-5.49433725599999,104.62178136
19834,Sekincau,"",-5.059238666,104.312619217
19835,Pringsewu,"",-5.35540486600001,104.977410299
19836,Metro,"",-5.107883453,105.307861848
19837,Bandar Jaya,"",-4.93658270499998,105.212664766
19838,Bukit Kemuning,"",-4.86006504099998,104.571926079
19839,Prabumulih,"",-3.50412649399999,104.186448771
19840,Sungailiat,"",-1.84772426500001,106.119194786
19841,Belinyu,"",-1.638182685,105.769591321
19842,Tabanan,"",-8.53922638900002,115.126566743
19843,Gianyar,"",-8.542695874,115.325857368
19844,Semarapura,"",-8.53501440700001,115.403275028
19845,Gerung,"",-8.68526637600002,116.122390814
19846,Lembar,"",-8.73659852100002,116.0879997845
19847,Praya,"",-8.71573361399999,116.27062372
19848,Lombok Tengah,"",-8.703070669,116.289933135
19849,Selong,"",-8.64609641999999,116.540618035
19850,Lunyuk,"",-8.97321798299998,117.238429971
19851,Sumbawa Barat,"",-8.65851186499998,116.916181886
19852,Sumbawa Besar,"",-8.496575576,117.426938644
19853,Empang,"",-8.77442685599999,118.005451604
19854,Batu,"",-7.87077682300003,112.527400653
19855,Negara,Negara,-8.35855218199998,114.621871458
19856,Singaraja,"",-8.11335725800001,115.08392943
19857,Lombok Utara,"",-8.357238188,116.160918702
19858,Dompu,Dompu,-8.53558140500002,118.462172599
19859,Kecamatan Parado,"",-8.74346699199998,118.581557075
19860,Kecamatan Monta,"",-8.65019590200001,118.702107045
19861,Kecamatan Langgudu,"",-8.685061749,118.81732454
19862,Kecamatan Madapangga,"",-8.51789648200003,118.553283699
19863,Kecamatan Bolo,"",-8.50890552200002,118.618159914
19864,Kecamatan Belo,"",-8.595453642,118.704312036
19865,Kecamatan Palibelo,"",-8.54025238399998,118.71482399
19866,Kecamatan Lambitu,"",-8.576922723,118.771348241
19867,Kecamatan  Lambu,"",-8.64287893400001,119.003214224
19868,Kecamatan Sape,"",-8.56389528,118.987851291
19869,Kecamatan Wawo,"",-8.52102846899999,118.844445921
19870,Waingapu,"",-9.65217500300002,120.26369019
19871,Kupang,Kupang,-10.163219759,123.601771035
19872,Bajawa,"",-8.78735079900002,120.973328074
19873,Ende,"",-8.84391105100002,121.647960613
19874,Sikka,"",-8.691051222,122.165323341
19875,Kecamatan Donggo,"",-8.416435428,118.589985538
19876,Kecamatan Soromandi,"",-8.37476561099999,118.630759859
19877,Kecamatan Ambalawi,"",-8.31626136800003,118.77170374
19878,Larantuka,"",-8.34757673000001,122.979720766
19879,Banjarbaru,Banjarbaru,-3.44721974300001,114.781125759
19880,Majene,"",-3.54592681000003,118.96074341
19881,Pinrang,"",-3.79325472400001,119.652867371
19882,Enrekang,"",-3.56652322000002,119.77382234
19883,Palopo,Palopo,-2.99962920799999,120.192064004
19884,Bau-Bau,"",-5.41080862299998,122.688950043
19885,Kendari,Kendari,-3.99180285300002,122.518004793
19886,Mamuju,Mamuju,-2.67574313,118.888581727
19887,Luwu Utara,"",-2.595121484,120.256251723
19888,Palu,Palu,-0.895775945000025,119.867993427
19889,Poso,"",-1.39484942849998,120.7539186825
19890,Banggai,"",-1.58881790200002,123.500845478
19891,Ampana,"",-0.873271542999987,121.587935376
19892,Luwuk,"",-0.950392205000014,122.788611105
19893,Salakan,"",-1.30927012900003,123.2908044
19894,Ikot Ekpene,"",5.18197837299999,7.71321730300002
19895,Suai,"Soeai, Suai, Swai",-9.310138693,125.2536333445
19896,Maliana,"Mpt, Maliana, Ma Li Ya Na",-8.99166790200002,125.219716432
19897,Ainaro,"Ainaro, Ainaru, Builico",-8.992405899,125.508156166
19898,Same,"Same, Sa Mu, Саме",-9.00580683999999,125.64616606
19899,Gleno,"Glenas, Gleno",-8.72388757800002,125.436106982
19900,Aileu,"Aileou, Aileu, Ajleu",-8.72805906000002,125.56638591
19901,Viqueque,"Vikeke, Bikeke, Wei Ke Ke",-8.85749649100001,126.364718405
19902,Manatuto,"Manatoetoe, Manatuto, Manatutu",-8.511389511,126.013058449
19903,Baucau,"Bch, Bacau, Baucau",-8.47110568800002,126.458326994
19904,Lospalos,"Lospalos, Loseupalloseu, Rosuparosu",-8.51860747900002,127.002496106
19905,Sorong,Sorong,-0.863407586999983,131.254477939
19906,Manokwari,Manokwari,-0.860230021999996,134.0629174855
19907,Burnie,"Bwt, Berni, Burnie",-41.055836136,145.903749626
19908,Port Lincoln,"Plo, Port Lincoln, Port-Linkol'N",-34.726249424,135.874418656
19909,Warrnambool,"Gouornampoul, Uornambul, Vornambul",-38.381758876,142.487985622
19910,Devonport,"Dpo, Devenport, Devonport",-41.176948604,146.35151566
19911,Launceston,"Lst, Launceston, Launcestown",-41.438757455,147.134669722
19912,Owerri,"",5.48973652199999,7.03419728400002
19913,Whyalla,"Gorad Uajala, Gouaialla, Uajalla",-33.032677359,137.564827235
19914,Port Augusta,"Kurdnatta, Pug, Port Augusta",-32.495969215,137.772807322
19915,Coffs Harbour,"Cfs, Coffs Harbour, Kofs Kharbor",-30.296257372,153.113509974
19916,Rockhampton,Rokgempton,-23.380318734,150.505946922
19917,Gladstone,Glehdston,-23.848519179,151.257749621
19918,Caloundra,"Cud, Caloundra, Kalaundra",-26.803458206,153.121947437
19919,Maroochydore,"Mcy, Maroochydore",-26.660079836,153.099528536
19920,Bundaberg,"Bdb, Bandaberg, Bundaberg",-24.866207711,152.347896835
19921,Timaru,"Distretto Di Timaru, Tiu, Te Tihi-O-Maru",-44.396715969,171.253636836
19922,Nelson,"Gorad Nel'San, Nsn, Nel'Son",-41.270777692,173.284036923
19923,Napier,"Ahuriri, Npe, Napier",-39.48332704,176.916668475
19924,Whangarei,"Distretto Di Whangarei, Fangarei, Fangarej",-35.73166651,174.323905858
19925,Gisborne,"East Cape, Gis, Gisborn",-38.653328183,178.004169701
19926,Mackay,"Mky, Mackay, Makaj",-21.15344951,149.165537806
19927,Merauke,Merauke,-8.49027560399998,140.395580308
19928,Timika,"",-4.54810391000001,136.889879698
19929,Nadi,"",-17.80472402,177.41833894
19930,Aola,"Aola, Aula, Tenaghau",-9.53486951799999,160.4878796
19931,Buala,"",-8.14496961999998,159.592118032
19932,Lata,Lata,-10.724997293,165.797217291
19933,Santana,"",0.257226994000007,6.74281006299998
19934,Bata,"Bsg, Bata, Batao",1.86391343999998,9.76581579200001
19935,Warri,Warri,5.517001902,5.74999742199998
19936,Umuahia,"",5.52890435,7.49915324300002
19937,Calabar,"",4.97960076200002,8.33735556300002
19938,Buea,"",4.15681987400001,9.231573637
19939,Ebolowa,"",2.91944230600001,11.151679208
19940,Bafia,"",4.73993631399998,11.220591905
19941,Kpalimé,"",6.91056478399997,0.63203489
19942,Tsévié,"",6.423117924,1.21046685099998
19943,Ouidah,"",6.36661617200002,2.08535750999999
19944,Aplahoué,"",6.94892711599999,1.70409668399998
19945,Dogbo-Tota,"",6.80184976200002,1.781518844
19946,Abomey-Calavi,"",6.45386628900002,2.35424483000003
19947,Allada,"",6.66584235900001,2.151183221
19948,Sakété,"",6.73776104299998,2.655154009
19949,Pobè,"",6.98202447099999,2.66679095799998
19950,Atakpamé,"",7.53206155599997,1.12194774
19951,Abomey,"",7.18200359299999,1.99362991300001
19952,Kétou,"",7.360423309,2.60241874000002
19953,Savalou,"",7.92973381000002,1.97809148099998
19954,Dassa-Zoumé,"",7.78154046100002,2.184645074
19955,Victoria Island,"",6.43333738000001,3.41666316499999
19956,Ikorodu,"",6.61912356400001,3.50412478200002
19957,Sagamu,"",6.84771805999998,3.64405166699999
19958,Ijebu-Ode,"",6.81400870800002,3.91516647700001
19959,Abeokuta,"",7.16100218499997,3.34799796700003
19960,Oyo,"",7.84105719899998,3.93153290499998
19961,Ife,"",7.481360279,4.55140518399998
19962,Akure,"",7.25256328299997,5.19326436599999
19963,Owo,"",7.19620552999999,5.586801138
19964,Ado Ekiti,"",7.62324915599999,5.22273923699998
19965,Ejigbo,"",7.90000244100003,4.31666371400001
19966,Osogbo,"",7.77916897099999,4.55388467300003
19967,Ogbomosho,Ogbomosho,8.13300241799999,4.24999650699999
19968,Ijagbo Offa,"",8.156001817,4.72274193200002
19969,Sokodé,"",8.98332318500002,1.14381314399998
19970,Kara,"",9.54876820200002,1.19808290499998
19971,Bassila,"",9.002938599,1.66481635600002
19972,Tchaourou,"",8.889039599,2.59793675999998
19973,Kouandé,"",10.332183263,1.69198273699999
19974,N'Dali,"",9.86234032599998,2.71973322500003
19975,Ilorin,"",8.49636682300002,4.54804819899999
19976,Nikki,"",9.93634250100001,3.20856157899999
19977,Sapele,"",5.89405524699998,5.67665674400001
19978,Awka,"",6.21009786000002,7.074112109
19979,Abakaliki,Abakaliki,6.32089187299999,8.11331954600001
19980,Enugu,"",6.44998730600003,7.49999923899998
19981,Oka-Akoko,"",7.45863987799999,5.80307468900003
19982,Otukpo,"",7.19126005200002,8.13285396100002
19983,Kumbo,"",6.21088985599999,10.686777249
19984,Makurdi,"",7.73126668100002,8.53842367999999
19985,Wukari,"",7.87052306999999,9.77755173999998
19986,Bida,"",9.08333524599999,6.016666251
19987,Minna,"",9.61871139499999,6.54757391999999
19988,Zaria,"",11.113492333,7.71884227800001
19989,Lafia,"",8.48333487999997,8.51666627600002
19990,Jos,"",9.91751458300001,8.89793610200002
19991,Bauchi,"",10.31687883,9.84101496199997
19992,Gombe,"",10.284069474,11.165264648
19993,Mongomo,"Gem, Margomo, Mongomo",1.62742147799997,11.313457997
19994,Ouesso,"",1.60965555600001,16.046046721
19995,Ouésso,Ouésso,1.61054655200002,16.051343197
19996,Mbalmayo,"",3.51519919100002,11.503109665
19997,Sangmélima,"",2.93617773300002,11.97564359
19998,Nola,"",3.52402815200003,16.044939725
19999,Basankusu,"",1.21916977000001,19.801365734
20000,Lisala,"",2.147394195,21.515673708
20001,Bumba,Bumba,2.183745036,22.466524034
20002,Mbaïki,"",3.873861116,17.992171177
20003,Bimbo,"",4.32962811499999,18.522988846
20004,Gemena,Gemena,3.25492933300001,19.77508135
20005,Yakoma,"",4.106114096,22.444987128
20006,Mobaye,"",4.320403156,21.176186199
20007,Dimbi,"",4.62473682000001,21.72027881
20008,Baoro,"",5.69471512199999,15.954854621
20009,Bozoum,"",6.318574383,16.370850795
20010,Bocaranga,"",6.96267905600001,15.649611961
20011,Lafia,"",9.65193474900002,11.817680784
20012,Yola,"",9.20770144400001,12.483577948
20013,Jimeta,"",9.27437461,12.451283536
20014,Lagdo,"",9.057482859,13.665354672
20015,Dembo,"",9.71233798399999,13.550402677
20016,Deba,"",10.210004299,11.386920175
20017,Biu,"",10.614611023,12.190958645
20018,Mubi,"",10.267608546,13.264356933
20019,Koza,"",10.868994906,13.882537219
20020,Mozogo,"",10.96845347,13.908992603
20021,Ashigashiya,"",11.135591736,13.874432754
20022,Kaele,"",10.10957374,14.446060745
20023,Kalfou,"",10.28505947,14.929561122
20024,Bogo,"",10.735111494,14.609941025
20025,Sibut,"",5.72748397800001,19.081935893
20026,Moïssala,"",8.33819933299998,17.7650577675
20027,Grimari,"",5.73966992499999,20.058004108
20028,Banikoara,"",11.300426012,2.43707146600002
20029,Malanville,"",11.860556553,3.38789029200001
20030,Sokoto,"",13.061056783,5.237319173
20031,Potiskum,"",11.712255204,11.076273039
20032,Hadejia,Hadejia,12.452605454,10.04188958
20033,Jakusko,"",12.369099321,10.774459364
20034,Guri,"",12.728427243,10.419793421
20035,Gashua,"",12.872854109,11.038779203
20036,Madaoua,"",14.071149348,5.95948050200002
20037,Kidal,"Kidal, Kidal', Kidalis",18.441107164,1.407777485
20038,Geidam,"",12.895201011,11.926467806
20039,Arkoum,"",13.196348689,21.70667987
20040,Matadjana,"",15.167146537,21.580945922
20041,Basoko,"",1.23249871199999,23.605694033
20042,Buta,Buta,2.79325835999998,24.728704602
20043,Isiro,"",2.77427294300003,27.620814906
20044,Likati,"",3.36235736200001,23.888544791
20045,Bambesa,"",3.44909448099997,25.694400363
20046,Butembo,Butembo,0.124972574000026,29.291950069
20047,Kasese,"",0.172370865999994,30.085692585
20048,Fort Portal,"",0.656190741999978,30.277940741
20049,Kanoni,"",0.172649864999983,31.906470091
20050,Mpigi,"",0.228332620000003,32.319851776
20051,Mityana,"",0.402054357999987,32.045006483
20052,Wakiso,"",0.398575873000027,32.480087073
20053,Nansana,"",0.365816016999986,32.529222357
20054,Mukono,"",0.36891650299998,32.734835454
20055,Njeru,"",0.43070123199999,33.15035913
20056,Iganga,"",0.615488421000009,33.479456185
20057,Hoima,"",1.43097934100001,31.352509023
20058,Masindi,"",1.685255224,31.720589407
20059,Arua,"",3.02250985400002,30.910480464
20060,Yei,Hai,4.09233515699998,30.676503991
20061,Yumbe,"",3.4674139,31.245863991
20062,Nimule,"",3.59669833300001,32.060243416
20063,Birao,"",10.2956359025,22.78171624
20064,Buram,"",10.858262453,25.159208713
20065,Ayod,"",8.13000093099998,31.409996271
20066,Waat,"",8.17896071600001,32.151822514
20067,Busia,"",0.467583069999989,34.090486003
20068,Kakamega,"",0.283304379000015,34.749998608
20069,Mbale,"",1.07119241999999,34.174946132
20070,Kitale,"",1.01807915299997,35.000233509
20071,Bukwo,"",1.28899146399999,34.740949147
20072,Meru,Meru,0.0500074029999951,37.650001876
20073,Jamame,Jamame,0.0722238060000109,42.750558484
20074,Jilib,"",0.493795454999997,42.77641087
20075,Bu'Ale,Bu'Ale,1.08333336700002,42.583325718
20076,Deg Jannaay,"",1.70647713099999,44.608262828
20077,Qoryooley,"",1.78966376599999,44.530624669
20078,Buurhakaba,Buurhakaba,2.78333140400002,44.083326633
20079,Xawo Tako,"",2.62003162000002,44.891275586
20080,Garbahaareey,Garba Harre,3.32800001200002,42.219875814
20081,Baidoa,"",3.119952426,43.64446156
20082,Arba Minch,"Amh, Arba Mench, Arba Minch",6.03333413600001,37.549998815
20083,Sodo,"Soddu, Sodo",6.90000333099999,37.749995937
20084,Dilla,"Dila, Dilla, Dīla",6.41167708500001,38.309769012
20085,Hawassa,"Awa, Avase, Awasa",7.05158249049998,38.4796779935
20086,Asella,"Asala, Asalā, Asela",7.95000172099998,39.133325864
20087,Nekemte,"Lakemti, Lechempte, Lechempti",9.09023118300001,36.549999705
20088,Debre Markos,"Dbm, Dabra Marko'S, Dabra Mārko’S",10.350003185,37.73332801
20089,Robe,"Robe, Robe (2), Robē",7.133331806,39.999999559
20090,Debre Birhan,"Dabra Berham, Dabra-Berhan, Dabra-Berhān",9.67954212799998,39.532618111
20091,Ghazipur,"",25.588052219,83.578560254
20092,Borama,"",9.93867349099997,43.184118081
20093,Kas,Kass,12.509737203,24.28518655
20094,Kutum,Kutum,14.204280313,24.666667875
20095,Mellit,"Mellit, Millit",14.133325575,25.549995997
20096,Dilling,"Ad Dalanj, Dilling, Диллинг",12.049996722,29.649999997
20097,Barah,"Bara, Barah, Bāra",13.699999978,30.366666851
20098,Bout,But,11.418901492,33.385897096
20099,Aj Jabalen,"Aj Jabalen, Al Jabalayn, El Jebelein",12.590399349,32.800796165
20100,Al Mazmūm,"Al Mazmum, Al Mazmūm",12.272196746,33.537897429
20101,Umm Ruwaba,"Um Ruaba, Um Ruwwaba, Um Ruwwāba",12.906099963,31.215799623
20102,Tandalti,"Tandalti, Tandaltī, Tendelti",13.016668978,31.866667766
20103,Wad Madanī,"Dni, Medani, Wad Madani",14.4011779,33.519888508
20104,Omdurman,"Omdoerman, Omdourman, Omdurman",15.644526941,32.477729083
20105,Shendi,"Shandi, Shendi, Shindi",16.691496845,33.434096385
20106,Dongola,"Ciutat De Dongola, Dog, Dongola",19.181628413,30.476889367
20107,Merowe,"Mwe, Marawi, Marawī",18.470357035,31.811259509
20108,Abu Hamad,"Abu Hamad, Abu Hamed, Abū Ḩamad",19.533328869,33.3166694
20109,Abri,"Sukkot, `Abri, ‘Abrī",20.799996808,30.333326497
20110,Giridih,"",24.185606444,86.307716762
20111,Wadi Halfa,"Uadi Halfa, Vadi Halfa, Vadi Khalfa",21.795765936,31.371287441
20112,Singa,"Senga, Singa, Sinja",13.1482979,33.931168702
20113,Al Quwaysi,"Al Quwaysi, Al Quwaysī, El Gueisi",13.333328088,34.083326534
20114,Al-Qadarif,"El Gedaref, Al Qadarif, Al Qaḑārif, Al-Kadarif",14.034929007,35.383438327
20115,Abu Delelq,"",15.899999819,33.799998778
20116,Aroma,"",15.816669185,36.133328535
20117,Axum,"Axu, Akesum, Aksoum",14.121085629,38.723368664
20118,Adwa,"Adaba, Adoua, Adowa",14.163466443,38.899236892
20119,Keren,"Cheren, Hamelmalo, Kehrehn",15.777919855,38.451065859
20120,Assab,"Asa, Aseb, Assab",13.009167511,42.739439033
20121,Ta'Izz,تعز,13.575220026,44.021523904
20122,Adigrat,Adigrat,14.276996445,39.461999921
20123,Dhamar,ذمار,14.542994777,44.400057742
20124,Samitah,"Samitah, Samta, Şāmitah",16.596007264,42.944345633
20125,Atbara,"Atb, Atbara, Atbare",17.702169908,33.98637896
20126,Sinkāt,Sinkat,18.84049841,36.835095954
20127,Sawakin,"Savakine, Sawakin",19.105898245,37.332096272
20128,Abu Ramad,"",22.397057796,36.406117337
20129,Al Bahah,"Abt, Al Bahah, Al Bāḩah",20.012878263,41.467668116
20130,Ghat,غات,24.962627033,10.179714975
20131,Ghadames,غدامس,30.125836866,9.490061502
20132,Al Qatrun,القطرون,24.888849857,14.53148387
20133,Murzuq,مرزق,25.914084856,13.919716056
20134,Awbari,أوباري,26.58970289,12.769417606
20135,Sabha,"سبها, Sebha‎",27.033153443,14.431692308
20136,Houn,هون,29.124564262,15.940256685
20137,Waddan,ودان‎,29.1614686,16.141401302
20138,Gharyan,غريان‑ ⵖⵔⵢⴰⵏ,32.171586385,13.021142
20139,Bani Walid,بني وليد,31.756967205,13.995050225
20140,Zuwarah,زوارة,32.932780543,12.080637129
20141,Al Ajyaylat,Al ʿAjaylat العجيلات,32.75801031,12.377500826
20142,Al-Zahra,الزهراء,32.677946662,12.872462653
20143,Al Aziziyah,العزيزية,32.533087798,13.017623016
20144,Al Zawiyah,الزاوية,32.76264079,12.726478794
20145,Tarhuna,ترهونة,32.437103219,13.639682285
20146,Sirte,سرت,31.203069137,16.584541357
20147,Khoms,الخمس,32.652179775,14.268005526
20148,Zliten,زليتن,32.467559085,14.56563872
20149,Misrata,مصراتة,32.374449994,15.090538915
20150,Jalu,جالو,29.033111163,21.548217565
20151,New Brega City,البريقه الجديده,30.482172302,19.729168051
20152,Ajdabiya,اجدابيا,30.755001604,20.223324382
20153,Al Abyar,الأبيار,32.189644806,20.594505252
20154,Marj,المرج,32.485712006,20.833832202
20155,Bayda,البيضاء,32.760948797,21.757714146
20156,Aflou,Aflou,34.112517864,2.10028844499999
20157,Mascara,"",35.394080738,0.137955058999978
20158,Chlef,Chlef,36.164589855,1.33149831999998
20159,Laghouat,Laghouat,33.806370708,2.88027452
20160,Messaad,Messaad,34.153832182,3.49580431800001
20161,Ain Oussara,Ain Oussara,35.449254995,2.90710340300001
20162,Bou Saada,Bou Saada,35.213312031,4.18096680999997
20163,Bouira,Bouira,36.373690437,3.89667155799998
20164,Barika,Barika,35.38450028,5.37059508700003
20165,Les Eucalyptus,Les Eucalyptus,36.656712194,3.14725834799998
20166,Kouba,Kouba,36.733765356,3.08617561599999
20167,Tizi Ouzou,Tizi Ouzou,36.713780944,4.04938738800001
20168,Biskra,Biskra,34.850847622,5.728685515
20169,Bir El Ater,Bir El Ater,34.744184591,8.05839728799998
20170,Khenchela,Khenchela,35.430152579,7.14570679399998
20171,Hammamet,Hammamet,35.449353995,7.95062276099998
20172,Mahdia,"Africa, Al Mahdiyah, Al Mahdīyah",35.504717252,11.0622196
20173,Sousse,"Gorad Sus, Hadrumetum, Qso",35.825385844,10.636989467
20174,Monastir,"Al Munastir, Al Munastīr, El Menstir",35.777987552,10.826168637
20175,Ariana,"Ariana, Aryanah, Aryānah",36.860115801,10.193367915
20176,Ben Arous,"Ben Arous, Ben Arus, Ben Arusas",36.753056771,10.218887303
20177,Carthage,"Karfagen, Qartajannah, Qarţājannah",36.861078797,10.331607308
20178,Ajaccio,"Aja, Adiacium, Aiacciu",41.927228556,8.73461831899999
20179,Catanzaro,"Catanzara, Catanzaro, Catanzaru",38.882469923,16.600858285
20180,Pula,"Pola, Puy, Pietas Iulia, Pluj",44.868325644,13.84805837
20181,Zadar,"Zara, Chadra, Gorad Zadar, Iader",44.119717931,15.24221975
20182,Bihać,"Bichacas, Bichačas, Bihac",44.81693587,15.87082649
20183,Orikum,"Orik, Oriku, Orikum",40.325276089,19.471386683
20184,Fier,"Fearica, Fier, Fieri",40.723888839,19.556107811
20185,Kavaje,"Cavaia, Cavaja, Kavaia",41.185559812,19.556935807
20186,Lezhë,"Alessio, Lesh, Leshe",41.783607187,19.643609927
20187,Shkoder,"Iskodra, Scutari, Shkoder",42.068275937,19.512579502
20188,Konispol,"Conispolis, Konispoje, Konispol",39.658887514,20.181389066
20189,Gjirokastra,"Agirocastro, Arghirocastru, Arghyrocastro",40.075828684,20.138886752
20190,Memaliaj,"Mamaliaga, Mamaliaj, Memaliaj",40.351668473,19.980275949
20191,Përmet,"Permet, Permeti, Premet",40.233606991,20.351668318
20192,Roskovec,"Roscovec, Roskovec, Roskoveci",40.737496779,19.70221767
20193,Ura Vajgurore,"Ur'E Hasan Beut, Ura Asan Beut, Ura Vajgurore",40.768888641,19.877779899
20194,Berat,"Belgrad, Beligrad, Berat",40.705825918,19.952218572
20195,Poliçan,"Polican, Policani, Polichan",40.612217329,20.098058432
20196,Leskovik,"Leskovik, Leskoviku, Leskoviqi",40.151387852,20.59721874
20197,Ersekë,"Colonia, Ehrseka, Erseg Giatseg",40.337777034,20.678888882
20198,Bilisht,"Biclishta, Biglista, Biklishta",40.627499262,20.989999516
20199,Kuçovë,"Kuchova, Kucova, Kucove",40.800276004,19.916668728
20200,Peqin,"Pecin, Pekin, Pekini",41.046109924,19.751109955
20201,Elbasan,"Ehl'Basan, Elbasan, Elbasani",41.112498133,20.082218501
20202,Kamëz,"Camza, Kambeza, Kambëza",41.381668951,19.760276415
20203,Librazhd,"Labrazhd, Libohov, Libohovo",41.179439839,20.314997979
20204,Pogradec,"Podgradec, Pogradec, Pogradeci",40.902497555,20.652496498
20205,Prrenjas,"Fshat Perrenjasi, Fshat Përrenjasi, Perren'Jas",41.073055806,20.548888952
20206,Ohrid,"Akhris, Gorad Okhryd, Ohd",41.117218612,20.801936342
20207,Laç,"Lac, Laci, Lak",41.635557837,19.713058122
20208,Kukës,"Cucus, Kukes, Kukesi",42.076938399,20.42193551
20209,Koplik,"Koplik, Koplik Poster, Koplik Pošter",42.213607299,19.436385837
20210,Banja Luka,"Bnx, Bagnaluka, Bana Luka",44.778416039,17.193856682
20211,Tuzla,"Donja Tuzla, Gorad Tuzla, Soli",44.538418593,18.667087214
20212,Sremska Mitrovica,"Dimitrofce, Dimitrofçe, Mitraja",44.97638817,19.612218065
20213,Bajram Curri,"",42.357336668,20.076787025
20214,Krumë,"Kruma, Krume, Krumë",42.196939372,20.413327048
20215,Novi Pazar,"Novi Pazar, Novi Pazaras, Novi Pazar",43.136665746,20.512218613
20216,Pristina,"Gorad Pryshcina, Prn, Prestena",42.6657244755,21.1655000065
20217,Uzice,"Gorad Uzhycy, Oujiste, Ouzhice",43.858606577,19.848777526
20218,Cacak,"Cacak, Cacakas, Chachak",43.891388933,20.349719827
20219,Valjevo,"Qwv, Valevas, Valevo",44.275129248,19.898209809
20220,Shubra Al Khayma,شبرا الخيمة,30.128608854,31.242219007
20221,Jagodina,"Giankontina, Jagodina, Svetozarevo",43.977127057,21.261208825
20222,Kufra,الكفرة,24.198768887,23.293188405
20223,El Farafra Oasis,واحة الفرافرة,27.064171807,27.96838888
20224,El Dakhla Oasis,الواحات الداخلة,25.512061121,29.258159718
20225,Kharga Oasis,الواحات الخارجة,25.452256384,30.541599083
20226,Siwa Oasis,واحة سيوة,29.199848931,25.518010137
20227,Tobruk,طبرق,32.077428798,23.960013477
20228,Derna,درنة,32.759378304,22.63831528
20229,Bahareya Oasis,الواحات البحرية,28.357200631,28.862962452
20230,El Alamein,العلمين,30.833940257,28.949267574
20231,Sadat City,مدينة السادات,30.372008285,30.521479671
20232,Ras Gharib,رأس غارب,28.359441621,33.077774449
20233,Al Tor,الطور,28.241663638,33.623608553
20234,Zaafaranah,زعفرانة,29.111905817,32.659244786
20235,Abu Zenima,أبو زنيمة,29.051160584,33.104058833
20236,Al-Obour,العبور,30.191397078,31.450545593
20237,Madinaty,مدينتى,30.091691016,31.623799332
20238,Shibin Al-Kom,شبين الكوم,30.554509484,31.009790528
20239,Banha,بنها,30.462493888,31.184061263
20240,Al-Zaqaziq‎,الزقازيق‎,30.585338849,31.50351036
20241,Tanta,‏طنطا,30.783562978,30.998333578
20242,10Th Of Ramadan City,مدينة العاشر من رمضان,30.290005145,31.749339781
20243,Abu Kabir‎,أبو كبير‎,30.725166735,31.670842125
20244,Al-Qantara Gharb,القنطرة غرب,30.855090164,32.309605321
20245,Qantara Sharq,القنطرة شرق,30.863622127,32.325161753
20246,Ras Sudr,رأس سدر,29.589010343,32.716003962
20247,Nekhel,نِخِل,29.909351816,33.745900016
20248,Damanhur,دمنهور,31.037870362,30.467983906
20249,Desouk,دسوق‎,31.128229965,30.646196624
20250,Mansoura,المنصورة,31.037564363,31.386488374
20251,Burg Al Burullous,برج البرلس,31.58272797,30.97743567
20252,Baltim Resort,مصيف بلطيم,31.59647541,31.110437086
20253,New Damietta,دمياط الجديدة,31.436447112,31.678141093
20254,Al Shalaten,شلاتين,23.106182683,35.563941534
20255,Marsa Alam,مرسى علم,25.069987562,34.893813476
20256,Ras Banas,رأس بناس,23.980771844,35.415649185
20257,El Qoseir,القصير,26.107453507,34.272235705
20258,Safaga,سفاجا‎‎,26.763330128,33.938377671
20259,Hurghada,الغردقة,27.240499033,33.826782661
20260,Sharm El-Sheikh,شرم الشيخ,27.866905283,34.301454077
20261,Afif,"Afif, `Afif, ‘Afīf",23.90649967,42.917237752
20262,Ad Dawadimi,"Ad Dawadami, Ad Dawadimi, Ad Dawādamī",24.50771953,44.392367276
20263,Ar Rass,"Al Russ, Ar Rass, El Russ",25.869436052,43.497298706
20264,Az Zulfi,"Az Zilfi, Az Zilfī, Az Zulfi",26.299449664,44.815419419
20265,St Catherine,مدينة كاترينا,28.567507207,33.953560604
20266,Dahab,دهب,28.496092521,34.514357142
20267,Nueiba,نويبع,28.977746997,34.653793754
20268,Eilat,"Eth, Ehjlat, Eilat",29.558047359,34.948209237
20269,Al Arish,العريش,31.12724897,33.804584258
20270,Jabalia Camp,"",31.536927171,34.496195222
20271,Kfar Saba,"Kafr Saba, Kefar Saba, Kefar Sava",32.17499737,34.906939919
20272,Sakib,ساكب,32.280067409,35.806620969
20273,Hadera,"Chadera, El Khudeira, Hadera",32.436446222,34.919557863
20274,Nahariyya,"Nagarija, Naharia, Nahariia",33.010085704,35.099503073
20275,Jenin,"",32.461092614,35.298550699
20276,Nazareth,"En Nasira, En Nāsira, Lungsod Ng Nazaret",32.699249568,35.304828172
20277,Safed,"Cfat, Safad, Safed",32.964649403,35.495996332
20278,Saida,صيدا,33.562602278,35.367787395
20279,Ar Rutbah,"Al Rutbah, Ar Rutbah, Ar Ruţbah",33.037175585,40.285856304
20280,Al Qadisiyah,"Al Qadisiyah, Al Qādisīyah, Qadisiya",31.6968952145,44.476273537
20281,Ad Diwaniyah,"Ad Diwania, Ad Diwaniya, Ad Diwaniyah",31.992887669,44.925515936
20282,Sumar,"Sumar, Sumer, Sumir",32.151138475,44.989888153
20283,Hīt,"Hit, Hīt, Hyt",33.636635953,42.827679145
20284,Karbala,"Gorad Kerbela, Karbala, Karbala'",32.616026934,44.024876389
20285,Al Musaiyib,"Al Musaiyib, Al Musayyib, Al'-Ehl'-Musajibe",32.778719219,44.290046725
20286,Al Hillah,"Al Hilla, Al Hillah, Al Ḩillah",32.4806991065,44.4272510945
20287,Al Mahawil,"Al Mahawil, Al Maḩāwīl, Khan Al Mahawil",32.661377735,44.408535705
20288,Al Madhatiyah,"Al Madhatiyah, Al Madḩatīyah, Imam Hamzah",32.40054988,44.665295578
20289,Baqubah,"Ba'Quba, Ba'Qubah, Bakouba",33.7433193635,44.6154075245
20290,Kos,"Coo, Kgs, Kos",36.893325656,27.288887363
20291,Mytilene,"Kastro, Mjt, Metilene",39.107716434,26.555287084
20292,Pafos,"Baf, Gazibaf, Nea Pafos",34.776786948,32.424507817
20293,Muğla,"Mentese, Menteshe, Mobolla",37.21806673,28.366497632
20294,Burdur,"Bourdour, Bourntour, Buldur",37.720278025,30.290828684
20295,Düzce,"Dusje, Duzce, Duzdje",40.838885834,31.163887851
20296,Kırklareli,"Kirk Kilise, Kirk Kilisse, Kirk-Kilissa",41.7350794,27.225208142
20297,Silistra,"Durostorum, Gorad Silistra, Sls",44.116666944,27.26666646
20298,Yalova,"Gialova, Jalova, Pythiae Thermae",40.655007641,29.276929135
20299,Bilecik,"Agrilium, Belocome, Bilecik",40.141919894,29.979317552
20300,Bolu,"Boli, Bolou, Bolu",40.735827287,31.60610991
20301,Zonguldak,"Gorad Zanguldak, Onq, Sandaraca",41.451387145,31.793048089
20302,Bartın,"Bartan, Bartheni, Bartin",41.635827835,32.337496199
20303,Karabük,"Karabiukas, Karabjuk, Karabuek",41.204878227,32.627677425
20439,Telavi,"T'Elavi, Telav, Telavi",41.919776589,45.473145531
20304,Medgidia,"Mecidiye, Medgidia, Medjidia",44.246877782,28.269413116
20305,Famagusta,"Ammochostos, Ammochostus, Ammokhostos",35.120535938,33.938935668
20306,Zahlé,زحلة,33.84450483,35.9095000655
20307,Jisr Ash-Shugur,"Djisr El Choghour, Jisr Al-Shughour, Jisr Shagour",35.814176393,36.319825716
20308,Antakya,"Antak'Ja, Antakija, Antakiya",36.202683913,36.1602450225
20309,Manbij,"Hierapolis, Manbej, Manbi",36.528147759,37.954947537
20310,Niğde,"Gorad Nijdeh, Nigdah, Nigde",37.965828447,34.679348918
20311,Nevşehir,"Muskara, Muşkara, Nav",38.624999053,34.712216773
20312,Kilis,"Ciliza, Kilis, Kilisas",36.716107434,37.114999225
20313,Al-Qa'Im,"Al Qa'Im, Al Qā’Im, Al-Qaim",34.392506635,40.989446215
20314,Samarra,"Saimarreh, Samara, Samarra'",34.195897998,43.885678501
20315,Tikrit,"Tekrit, Tikret, Tikritas",34.615809154,43.67860741
20316,Mardin,"Mqm, Marde, Mardin",37.313088313,40.743567295
20317,Al-Malikiyah,"Al Malikiyah, Al Mālikīyah, Darik",37.17700891,42.140059664
20318,Tunceli,"Kalan, Mameki, Mamekiye",39.108287932,39.547108048
20319,Bingöl,"Bgg, Badlis, Bingol",38.884719913,40.493885891
20320,Bitlis,"Bages, Bidlis, Bidlîs",38.401147536,42.107839806
20321,Muş,"Msr, Mus, Mush",38.745247525,41.506925944
20322,Soran,"Diana, Diyana, Diyane",36.65319771,44.54406611
20323,Hakkâri,"Colemerik, Hakari, Hakkari",37.574438165,43.740828636
20324,Yozgat,"Gioznkat, Jozgat, Jozgatas",39.819995807,34.804439369
20325,Amasya,"Amas'Ja, Amasea, Amaseia",40.653329149,35.833058353
20326,Kastamonu,"Castamena, Castamon, Castamoni",41.378046467,33.775275887
20327,Sinop,"Nop, Sic, Sanub",42.026826619,35.162529796
20328,Giresun,"Cerasus, Choerades, Gireson",40.916978491,38.387409139
20329,Bayburt,"Baberd, Baiburt, Baimpourt",40.25888788,40.227779559
20330,Rize,"Bechirias, Corum, Provinsi Rize",41.020829035,40.521938768
20331,Artvin,"Artivin, Artvin, Artwin",41.181608829,41.821717562
20332,Kars,"Cars, Ksy, Kapc",40.598249391,43.085478514
20333,Ardahan,"Ardagan, Ardahan, Ardakhan",41.10870915,42.702219696
20334,Gori,"Gori, Goris, Ge Li",41.984216306,44.11577599
20335,Zugdidi,"Sugdidi, Zugdidis",42.508797003,41.870879846
20336,Sokhumi,"Akva, Aҟəa, Sui",43.0046923555,41.003209974
20337,Tskhinvali,"Chreba, Ckhinval, Ckhinvali",42.227638237,43.968608636
20338,Nazran,"Imeni Kost-Khetagurova, Kazran, Kosta-Khetagurovo",43.225967854,44.773227604
20339,Afgooye,"",2.14653469899997,45.119339085
20340,Garoowe,Garowe,8.40614671899999,48.483191317
20341,Burao,Burco,9.52417580999997,45.536928251
20342,Sheikh,"",9.93066165350001,45.1923527145
20343,Las Anod,"",8.47426292,47.355190269
20344,Badhan,Badhan,10.715406081,48.335105967
20345,Kesbewa,"",6.79568478900001,79.940784713
20346,Maharagama,"",6.84728156199998,79.926605276
20347,Kolonnawa,"",6.93262818800002,79.890312935
20348,Wattala,"",6.98987243599998,79.892706924
20349,Weligama,"",5.97541939000001,80.42909107
20350,Matara,"",5.94782551100002,80.548291046
20351,Galle,"",6.03281663799999,80.21495051
20352,Tangalle,"",6.02195368600002,80.795992459
20353,Hambantota,"",6.12491323400002,81.124252518
20354,Deniyaya,"",6.342563778,80.560616492
20355,Balangoda,"",6.64792793700002,80.701398374
20356,Rathnapura,"",6.68037279499998,80.402293687
20357,Avissawella,"",6.95223460099999,80.21259252
20358,Hatton,"",6.89163336799999,80.598456826
20359,Nuwara Eliya,"",6.97381650699998,80.767066586
20360,Bandarawela,"",6.830483136,80.988816612
20361,Badulla,"",6.989822936,81.056941813
20362,Monaragala,"",6.87277395000001,81.350561024
20363,Ja-Ela,"",7.07938154300001,79.890762933
20364,Katunayake,"",7.15677670299999,79.871665017
20365,Gampaha,"",7.09256198499997,79.995135475
20366,Chilaw,"",7.57650786099998,79.79567385
20367,Puttalam,"",8.03018686899998,79.828654206
20368,Warakapola,"",7.22496490399999,80.196536591
20369,Kegalle,"",7.25320227999998,80.345409437
20370,Gampola,"",7.163652673,80.57027345
20476,Farooka,فروکہ,31.824592908,72.536652219
20371,Kurunegala,"",7.487048254,80.364885351
20372,Matale,"",7.47212631899998,80.623413716
20373,Dambulla,"",7.87423105400001,80.651138095
20374,Anuradhapura,"",8.33498853100002,80.410605151
20375,Polonnaruwa,"",7.93975526600002,81.000305062
20376,Ampara,"",7.29112361400001,81.672395111
20377,Kattankudy,"",7.68048890400001,81.728964363
20378,Eravur,"",7.77330549700002,81.609530387
20379,Batticaloa,"",7.73560466200001,81.694193016
20380,Mannar,"",8.97724821100002,79.913775832
20381,Vavuniya,"",8.75935466800001,80.500073758
20382,Trincomalee,Trincomalee,8.57642597099999,81.234493034
20383,Mullaitivu,"",9.26922943,80.81401038
20384,Nagapattinam,"",10.763933868,79.844539136
20385,Hosur,"",12.736468708,77.832638468
20386,Ambur,"",12.791629466,78.716439088
20387,Dharwad,"",15.460045751,75.00777587
20388,Panaji,"",15.495739594,73.826238557
20389,Bagalkot,"",16.186729561,75.696137848
20390,Tadipatri,"",14.908316673,78.010306688
20391,Narasaraopet,"",16.234879349,80.049265737
20392,Chilakaluripet,"",16.089867486,80.16704822
20393,Suryapet,"",17.140536373,79.62044912
20394,Siddipet,"",18.10482814,78.848576508
20395,Bhilai,"",21.209189011,81.428496182
20396,Shaqra,"Ash Shaqra', Ash Shaqrā’, Shagra",25.241958807,45.252776999
20397,Al Majmaah,"Al Majma`Ah, Al Majma‘Ah, Majma'",25.91096637,45.356645543
20398,Al Buraimi,"Al Buraymi, Al Buraymī, Baraimi",24.250878658,55.793116725
20399,Ras Al-Khaimah,"Julfa, Khaimah, Rkt",25.789529903,55.943195566
20400,Khasab,"Al Khasab, Al Khasal, Al Khaşab",26.179925689,56.247736229
20401,Al Jahra,"Al Jahara, Al Jahra, Al Jahra'",29.337498827,47.658056939
20402,Az Zubayr,"Az Zubair, Az Zubayr, Az Zuhair",30.392127697,47.701747247
20403,As Samawah,"As Samawah, As Samāwah, Samawa",31.3157626075,45.2833042355
20404,Nasiriyah,"Nasiriya, Al-Nasiriya, An Nasiriya, An Nasiriyah",31.057989774,46.257258089
20405,Sayyid Dakhil,"Imam Saiyid Dakhil, Imam Sayyid Dakhil, Imām Saiyid Dakhīl",31.13166795,46.434165812
20406,Kut,"Al-Kūt, Kūt, Kwt",32.500216935,45.828923975
20407,Golpayegan,"Golpayagan, Golpayegan, Golpāyagān",33.453698256,50.288358392
20408,Kazerun,"Kasrun, Kazarun, Kazeroun",29.619485589,51.654147396
20409,Qahjavarestan,"Qahjavarestan, Qahjavarestaq, Qahjaverestan",32.702467054,51.838817585
20410,Na'In,"Na'In, Naeyn, Nāeyn",32.860056362,53.087485603
20411,Bafq,"Bafk, Bafq, Bāfq",31.603499879,55.40248694
20412,Nizwa,"Nazwah, Nizva, Nizwa",22.933329442,57.533326585
20413,Izki,"Azki, Azkī, Izki",22.933329442,57.766668561
20414,Bidbid,Bidbid,23.407865859,58.128295973
20415,Sur,"As Sur, As Sūr, Suh",22.566666552,59.528887825
20416,Gwadar,گوادر,25.147981219,62.325454547
20417,Turbat,تُربت,26.002788467,63.050558864
20418,Khuzdar,خضدار,27.800013077,66.616649208
20419,Jiroft,"Jyr, Jiroft, Jīroft",28.678058222,57.740559676
20420,Bam,"Bxr, Bam, Bamu",29.105997343,58.356998469
20421,Khash,"Kavash, Khash, Khāsh",28.221067228,61.215817919
20422,Zaranj,"",30.959399706,61.862699079
20423,Qaen,"Qa'En, Qain, Qayen",33.726536558,59.184387337
20424,Chaman,چمن,30.915947897,66.463100882
20425,Lashkar Gah,"",31.581796474,64.354698139
20426,Farah,"",32.384196951,62.122698937
20427,Qalat,"",32.105895673,66.903896447
20428,Mujama Tasluwjah,"Mujama` Tasluwjah, Mujama‘ Ţāslūwjah, مجمع طاسلوجة",35.595288354,45.225925617
20429,Ratodero,رتوديرو,27.800719574,68.288423369
20430,Nazarabad,"Nazarabad, Nazarabad-E Bozorg, Naz̧Arābād",35.954107779,50.606065997
20431,Naqadeh,"Nagadeh, Naghadeh, Naghdeh",36.955299384,45.387996905
20432,Rezvanshahr,"Razvand, Rezvandeh, Rezvanshahr",37.549755774,49.137029446
20433,Fuman,"Fowman, Fowmen, Fuman",37.223997704,49.312497176
20434,Lahijan,"Lahijan, Lāhījān, Lahyjan",37.204157291,50.009188617
20435,Robat Karim,"Robat Karim, Robāţ Karīm, Shahriar",35.48459784,51.082897404
20436,Kalardasht,"Kalardasht, Kalārdasht, Klardsht",36.510939834,51.173428006
20437,Amol,"Amol, Amol', Amul",36.469607516,52.350717338
20438,Damghan,"Damghan, Dāmghān, Damghan",36.16789734,54.342917092
20440,Parsabad,"Farsabad, Fārsābād, Pfq",39.648195561,47.917399801
20441,Turkmenbashy,"Gorad Turkmenbashy, Krw, Krasnovodsk",40.008418388,52.9915722435
20442,Ferdows,"Ferdows, Firdaus, Tun",34.018499777,58.172215781
20443,Gonabad,"Gonabad, Gonābād, Gunabad",34.352866309,58.683647535
20444,Hasilpur,"",29.690675276,72.550318659
20445,Mary,"Myp, Maras, Margiana",37.593779081,61.830308221
20446,Chaghcharan,"",34.525099902,65.254875059
20447,Maymana,"",35.920398427,64.783798255
20448,Sar-E Pol,"",36.255097958,65.922297757
20449,Turkmenabat,"Crz, Chardzha, Chardzhev",39.073278085,63.578609046
20450,Shahrisabz,"Schachrissjabs, Shahri-I-Sabz, Shahrisabz",39.057775653,66.834169253
20451,Zarafshan,"Afs, Zarafshan, Zarafshon",41.58000558,64.19491734
20452,Navoiy,"Gorod Navoi, Kermine, Navoi",40.099998078,65.366667196
20453,Shahdadpur,شهدادپور,25.921757322,68.622317403
20454,Sibi,سِبی,29.550005894,67.883339647
20455,Dunyapur,دنیاپور,29.802531285,71.741996207
20456,Khairpur Tamiwali,"",29.579300765,72.245332498
20457,Tiba Sultanpur,"",29.974750029,71.878242109
20458,Jahanian,جہانیاں,30.039338246,71.818288872
20459,Vehari,وہاڑی‎,30.041660235,72.353534522
20460,Mian Channu,"",30.438936491,72.355051016
20461,Arifwala,"",30.294446626,73.058937926
20462,Kamalia,"",30.726984727,72.645020743
20463,Pir Mahal,"",30.765455058,72.434403667
20464,Zhob,ژوب,31.34122753,69.447978278
20465,Ghazni,"",33.557899799,68.42019629
20466,Gardez,"",33.5992504565,69.226642752
20467,Layyah,ليّہ,30.964867182,70.945598704
20468,Fatehpur,فتح پُور,31.178188746,71.20603056
20469,Bhakkar,بهكّر,31.630306261,71.067687668
20470,Dera Ismail Khan,ڈیرہ اسماعیل خان,31.827526895,70.909090364
20471,Tank,"",32.220690169,70.386831657
20472,Atharan Hazari,"",31.159495828,72.099974136
20473,Jhang Sadar,جھنگ,31.27287733,72.310303212
20474,Bhawana,بھوانہ,31.56678004,72.647239233
20475,Khushab,"",32.290363363,72.351577031
20477,Chenab Nagar,"",31.754051218,72.920005536
20478,Bhalwal,"",32.26829996,72.894306148
20479,Mullazai,"",32.426388766,70.453606863
20480,Bannu,بنوں,32.985700311,70.603600205
20481,Thal,"",33.366128641,70.549865941
20482,Dara Adamkhel,"",33.685010741,71.516623697
20483,Phularwan,"",32.357431069,73.012763628
20484,Pind Dadan Khan,"",32.583577576,73.046792479
20485,Taxila,"",33.747573966,72.80745203
20486,Mouza Akbar,"",30.8925705,73.286096928
20487,Renala Khurd,"",30.878247063,73.599876051
20488,Nankana Sahib,"",31.444196078,73.694825634
20489,Kot Radha Kishan,"",31.17047578,74.10124135
20490,Bahria Town,"",31.381358354,74.186344976
20491,Bhabra,"",32.228173636,73.218214726
20492,Sanda,"",32.784393694,74.107208324
20493,Kuthiala Shaikhan,"",32.458370126,73.411358378
20494,Bhikhi Sharif,"",32.499562945,73.419134344
20495,Malakwal,"",32.553756207,73.207194275
20496,Phalia,"",32.430947246,73.578933143
20497,Mandi Bahauddin,"",32.584630571,73.491413027
20498,Dina,"",33.028216124,73.602517539
20499,Sohawa,"",33.200754367,73.073648361
20500,Kallar Syedan,"",33.415290925,73.378774022
20501,Kahuta,"",33.593634142,73.387373484
20502,Ambikapur,"",23.118917627,83.195368425
20503,Bokaro,"",23.787317693,85.956218805
20504,Bihar Sharif,"",25.200837987,85.523887703
20505,Meherpur,Meherpur,23.776868739,88.630327565
20506,Patan,"Lalitapura, Lalitpur, Manigal",27.676578619,85.314166123
20507,Budhanilkantha,"Budanilkantha, Budha-Nilkantha, Budhanilkantha",27.776977678,85.362437411
20508,Bamian,"",34.820198257,67.83249887
20509,Parachinar,"پاراچنار‎, پاړه چنار‎",33.896793311,70.100052416
20510,Surobi,"",34.589596769,69.764695888
20511,Bazarak,"",35.311096602,69.520198461
20512,Khar,خار,34.739909609,71.528503644
20715,Ligao,"",13.241163992,123.537353818
20513,Nowshera,نوشہرہ‎ / نوښار,34.01555679,71.981282657
20514,Attock,اٹک,33.76952937,72.361089989
20515,Charsadda,چارسدہ,34.144229225,71.732370749
20516,Haripur,ہری پور,33.994406882,72.933500976
20517,Swabi,صوابی,34.127772797,72.474444492
20518,Swat City,سوات,34.773546962,72.3587095
20519,Sowari,صواری,34.477443762,72.485829442
20520,Char Bagh,چارباغ,34.834377695,72.440478641
20521,Besham,بشام,34.929246278,72.879028715
20522,Taloqan,"",36.739498331,69.536996887
20523,Murree,Murree,33.905388273,73.390338971
20524,Mansehra,مانسہرہ,34.328683415,73.199310309
20525,Gilgit,"Gil, Gilghit, Gilgit",35.918688434,74.312447923
20526,Jizzax,"Cizzak, Dishsak, Djizak",40.115829008,67.842218828
20527,Turkestan,"Turkestan, Turkistan, Türkistan",43.297328541,68.25174853
20528,Karakol,Каракол,42.603184089,78.527651417
20529,Godhra,"",22.775465635,73.614878985
20530,Ürümqi,"Dikhua, Oeremce, Ouroumtchi",43.80095733,87.600457586
20531,Calais,"Cqf, Calais, Cales",50.951938936,1.85634901499998
20532,Deventer,"Daventria, Deventer, Deventeris",52.254998216,6.16388760500001
20533,Kolding,"Kol'Ding, Kolding, Koldinga",55.490398512,9.47215608099998
20534,Horsens,"Horsens, Horsensas, Khorsens",55.860656886,9.850338921
20535,Doun Kaev,"",10.991277369,104.782885153
20536,Slavonski Brod,"Brod, Bród, Marsonia",45.160279863,18.015557574
20537,Olomouc,"Aebura, Eburum, Gorad Olamauc",49.595518891,17.251748927
20538,Sopot,"Gorad Sopat, Sopot, Sopota",54.441799615,18.560028184
20539,Kristiansand,"Christiansand, Krs, Krisjansanna",58.14670985,7.99559556299999
20540,Randers,"Randers, Randersa, Randersas",56.460697752,10.036386104
20541,Halmstad,"Gal'Mstad, Gorad Khal'Mstad, Had",56.674455814,12.856757722
20542,Trollhättan,"Gorad Trol'Khetan, Thn, Trolem Excudia",58.283648749,12.288639716
20543,Kalmar,"Calmaria, Gorad Kal'Mar, Klr",56.66156787,16.361625835
20544,Karlstad,"Carolostadium, Gorad Karl'Stad, Ksd",59.379299439,13.503566882
20545,Ölgii,"Bayan-Ulegey, Oelgii, Oelgiy",48.968329645,89.962497217
20546,Liepaja,"Gorad Liepaja, Lpx, Leepaja",56.516668506,21.016666399
20547,Södertälje,"Gorad Sjodehrtehl'E, Jso, S'Odertale",59.195538246,17.625247288
20548,Gävle,"Evle, Gvx, Gaefle",60.674519753,17.14173791
20549,Bodø,"Boo, Bode, Bodo",67.279995754,14.405007425
20550,Lviv,"Gorad L'Vou, Ilbav, L'Viv",49.838256826,24.0232382
20551,Chernivtsi,"Cwc, Cernauti, Cernivci",48.291487616,25.940337783
20552,Vinnytsia,"Vinnica, Vinnicja, Vinnitsa",49.232779984,28.48096813
20553,Brovary,"Brovarai, Brovari, Brovary",50.518086841,30.806706419
20554,Kulai,"Kulai, Kuli",1.656104352,103.603197332
20555,Pavlohrad,"Gorad Paulagrad, Pavlogi, Pavlograd",48.53425705,35.870979686
20556,Makiivka,"Dmitriyevsk, Makayevka, Makeevka",48.047818186,37.925756165
20557,Horlivka,"Gorlauka, Gorlivka, Gorlovka",48.335758422,38.053249606
20558,Lappeenranta,"Gorad Lapeehnranta, Lpp, Lapenrand",61.058705566,28.188707913
20559,Kuopio,"Kuo, Kouopio, Kuopijas",62.892375516,27.677028659
20560,Longyearbyen,"Gorad Longjir, Lyr, Long'Ir",78.223335711,15.646889473
20561,Zhezkazgan,"Bol'Shoy Dzhezkazgan, Bol’Shoy Dzhezkazgan, Dzn",47.783327347,67.766668659
20562,Stepnogorsk,"Stepnogor, Stepnogors'K, Stepnogorsk",52.350618296,71.881608094
20563,Kyonpyaw,"",17.299997673,95.199997223
20564,Aksu,"Aksu, Aqsu, Aqsū",52.040227659,76.927476442
20565,Nar'Yan-Mar,"Dzerzhinskiy, Nnm, Nar'Yan-Mar",67.638689179,53.003709471
20566,Subulussalam,"",2.64031753099999,98.005244408
20567,Kota Sidikalang,"",2.75848251299999,98.29851262
20568,Sibolga,Sibolga,1.73695999699999,98.784609486
20569,Rantau Prapat,"",2.09611692099998,99.829437399
20570,Kotapinang,"",1.89451330600002,100.091084251
20571,Langsa,Langsa,4.473091985,97.96818257
20572,Lhokseumawe,Lhokseumawe,5.17896788600001,97.148052171
20573,Lubuk Pakam,"",3.56037449199999,98.876692582
20574,Sitiawan,"Simpang Ampat, Sitiawan",4.21680011000001,100.699598579
20575,Teluk Intan,"Telok Anson, Teluk Anson, Teluk Intan",4.02590194800001,101.021297667
20576,Ipoh,"Iph, Ipo, Ipoh",4.58410199799999,101.082897896
20577,Kuala Kangsar,"Kangsar, Kuala Kangsa, Kuala Kangsar",4.76667069600001,100.933327553
20578,Nibong Tebal,"Nibong Tebal, Nibong Tepal, Nibung Tebal",5.16586394400002,100.477929552
20579,Butterworth,"Bwh, Batervortas, Butterworth",5.39917892,100.370038026
20580,Bukit Mertajam,Bukit Mertajam,5.363012578,100.466697602
20581,Kulim,Kulim,5.36499257000003,100.561768684
20582,Sabang,Sabang,5.89274575299999,95.322572185
20583,Kangar,"Kangar, Perlis, Poelit",6.44140134399998,100.198615778
20584,Hat Yai,"Amphoe Hat Yai, Ban Haad Yai, Ban Hat Yai",7.00836285499997,100.476678558
20585,Trang,"Amphoe Muang Trang, Changwat Trang, Tst",7.55633444900002,99.611408856
20586,Port Dickson,"Arang Arang Anchorage, Arang-Arang, Port Dickson",2.53718248400003,101.805707223
20587,Alor Gajah,"Alor Gajah, Alor Gajeh, Alur Gajah",2.380403172,102.208896453
20588,Batu Pahat,"Bp, Bandar Penggaram, Batu Pahat",1.85480097999999,102.932497776
20589,Kluang,"Keluang, Kluang",2.02510273199999,103.332798019
20590,Segamat,Segamat,2.51480408200001,102.815799789
20591,Tanjung Pinang,Tanjung Pinang,0.92369206799998,104.446093131
20592,Temerloh,"Temerloh, Temerluh",3.45060197399999,102.417596537
20593,Bentong,"Benton, Bentong, Bentung",3.53160161900001,101.903797792
20594,Dungun,"Dungun, Kuala Dungun",4.77500015999999,103.416196153
20595,Singkawang,Singkawang,0.906988140999999,108.988962688
20596,Sarikei,"Sarikei, Seriki, Siriki",2.11667283000003,111.516669091
20597,Ranai,"",3.93829183299999,108.380065861
20598,Cà Mau,"Ca Mau, Camo, Cu Mau",9.176822335,105.152419031
